"stop_id","stop_name","stop_lat","stop_lon","source_table","bus_lines"
400026,"MADISON AV/EAST 63 ST","40.766273","-73.96933","manhattan","['M4', 'M1', 'M3', 'M2']"
400027,"MADISON AV/E 65 ST","40.767582","-73.968376","manhattan","['M72', 'M66']"
400028,"MADISON AV/E 67 ST","40.768814","-73.967484","manhattan","['M4', 'M72', 'M1', 'M3', 'M2']"
400029,"MADISON AV/E 69 ST","40.770077","-73.96656","manhattan","['M4', 'M72', 'M1', 'M3', 'M2']"
400030,"MADISON AV/E 72 ST","40.772148","-73.96505","manhattan","['M4', 'M1', 'M3', 'M2']"
400032,"MADISON AV/E 77 ST","40.775322","-73.962738","manhattan","['M4', 'M1', 'M3', 'M2']"
400033,"MADISON AV/E 79 ST","40.776695","-73.961731","manhattan","['M4', 'M1', 'M3', 'M2']"
400034,"MADISON AV/E 83 ST","40.778793","-73.960205","manhattan","['M4', 'M1', 'M3', 'M2']"
400036,"MADISON AV/E 86 ST","40.781155","-73.958481","manhattan","['M4', 'M1', 'M3', 'M2']"
400037,"MADISON AV/E 89 ST","40.782677","-73.957375","manhattan","['M4', 'M1', 'M3', 'M2']"
400038,"MADISON AV/E 91 ST","40.784359","-73.956139","manhattan","['M4', 'M1', 'M3', 'M2']"
400039,"MADISON AV/E 93 ST","40.785637","-73.955208","manhattan","['M4', 'M1', 'M3', 'M2']"
400041,"MADISON AV/E 98 ST","40.788414","-73.953178","manhattan","['M4', 'M1', 'M3', 'M2']"
400042,"MADISON AV/E 101 ST","40.790302","-73.951797","manhattan","['M4', 'M1', 'M3', 'M2']"
400043,"MADISON AV/E 102 ST","40.79137","-73.951019","manhattan","['M4', 'M1', 'M3', 'M2']"
400044,"MADISON AV/E 104 ST","40.79216","-73.950447","manhattan","['M4', 'M1', 'M3', 'M2']"
400045,"MADISON AV/E 106 ST","40.793434","-73.949509","manhattan","['M4', 'M106', 'M1', 'M3', 'M2']"
400046,"MADISON AV/E 107 ST","40.794552","-73.948692","manhattan","['M4', 'M1', 'M3', 'M2']"
400047,"MADISON AV/E 109 ST","40.795815","-73.947777","manhattan","['M1']"
400048,"MADISON AV/E 111 ST","40.797024","-73.946892","manhattan","['M1']"
400050,"MADISON AV/E 115 ST","40.799541","-73.945053","manhattan","['M1']"
400051,"MADISON AV/E 118 ST","40.801506","-73.943619","manhattan","['M1']"
400053,"MADISON AV/E 123 ST","40.804779","-73.94133","manhattan","['BXM3', 'M1', 'BXM4']"
400054,"MADISON AV/E 125 ST","40.806015","-73.940346","manhattan","['M1']"
400055,"MADISON AV/E 127 ST","40.807247","-73.939461","manhattan","['M1']"
400056,"MADISON AV/E 129 ST","40.80851","-73.938538","manhattan","['M1']"
400057,"MADISON AV/E 132 ST","40.810429","-73.937111","manhattan","['M1']"
400059,"5 AV/E 135 ST","40.813126","-73.937225","manhattan","['M1']"
400060,"5 AV/E 138 ST","40.814465","-73.936249","manhattan","['M1']"
400061,"W 139 ST/5 AV","40.815617","-73.936279","manhattan","['M1']"
400062,"MALCOLM X BL/W 139 ST","40.81694","-73.938614","manhattan","['M102', 'M7', 'M1']"
400065,"MALCOLM X BL/W 145 ST","40.820679","-73.935875","manhattan","['M102', 'M7', 'M1']"
400066,"W 147 ST/MALCOLM X BL","40.821964","-73.93573","manhattan","['M102', 'M7', 'M1']"
400067,"W 147 ST/ADAM C POWELL BL","40.822865","-73.937859","manhattan","['M102', 'M7', 'M1']"
400069,"GREENWICH ST/MORRIS ST","40.706024","-74.014305","manhattan","['M5']"
400070,"TRINITY PL/RECTOR ST","40.708008","-74.012711","manhattan","['X17A', 'M5', 'X19', 'X8', 'X11', 'X10', 'X3', 'X12', 'X1', 'X15', 'X4', 'X17']"
400070,"TRINITY PL/RECTOR ST","40.708008","-74.012711","staten","['X17A', 'M5', 'X19', 'X8', 'X11', 'X10', 'X3', 'X12', 'X1', 'X15', 'X4', 'X17']"
400071,"CHURCH ST/LIBERTY ST","40.710014","-74.01136","manhattan","['BM2', 'X17A', 'M5', 'BM3', 'BM1', 'BM4', 'X1', 'X17']"
400071,"CHURCH ST/LIBERTY ST","40.710014","-74.01136","staten","['BM2', 'X17A', 'M5', 'BM3', 'BM1', 'BM4', 'X1', 'X17']"
400087,"W 146 ST/MALCOLM X BL","40.821152","-73.935974","manhattan","['M102', 'M7']"
400088,"MALCOLM X BL/W 145 ST","40.820152","-73.936607","manhattan","['M102', 'M7', 'M1']"
400089,"MALCOLM X BL/W 142 ST","40.818249","-73.938004","manhattan","['M102', 'M7', 'M1']"
400091,"W 139 ST/MALCOLM X BL","40.81638","-73.938744","manhattan","['M1']"
400092,"5 AV/W 138 ST","40.815201","-73.935982","manhattan","['M1']"
400093,"5 AV/W 137 ST","40.813793","-73.937004","manhattan","['M1']"
400094,"5 AV/W 135 ST","40.812366","-73.938042","manhattan","['M1']"
400095,"5 AV/W 132 ST","40.810619","-73.939285","manhattan","['M1']"
400096,"5 AV/W 130 ST","40.809345","-73.940208","manhattan","['M1']"
400097,"5 AV/W 128 ST","40.808075","-73.941139","manhattan","['M1']"
400098,"5 AV/W 125 ST","40.806137","-73.942558","manhattan","['BXM3', 'M1', 'BXM4']"
400099,"MT MORRIS PK W/W 124 ST","40.80619","-73.944603","manhattan","['M1']"
400100,"MT MORRIS PK W/W 121 ST","40.804607","-73.945763","manhattan","['M1']"
400101,"W 120 ST/5 AV","40.803219","-73.944672","manhattan","['M1']"
400102,"5 AV/W 118 ST","40.801693","-73.945839","manhattan","['M1']"
400103,"5 AV/W 116 ST","40.800354","-73.946815","manhattan","['M1']"
400105,"5 AV/W 112 ST","40.797874","-73.948639","manhattan","['M1']"
400107,"5 AV/EAST 109 ST","40.796535","-73.94957","manhattan","['M1', 'M2']"
400108,"5 AV/EAST 108 ST","40.795513","-73.950317","manhattan","['M4', 'M1', 'M3', 'M2']"
400109,"5 AV/EAST 106 ST","40.794178","-73.951286","manhattan","['M4', 'M1', 'M106', 'M3', 'M2']"
400110,"5 AV/EAST 104 ST","40.793072","-73.952095","manhattan","['M4', 'M1', 'M106', 'M3', 'M2']"
400111,"5 AV/EAST 102 ST","40.791569","-73.953178","manhattan","['M4', 'M1', 'M106', 'M3', 'M2']"
400115,"5 AV/EAST 94 ST","40.78656","-73.956863","manhattan","['M4', 'BXM2', 'M1', 'M3', 'M2']"
400116,"5 AV/EAST 92 ST","40.785461","-73.957657","manhattan","['M4', 'M1', 'M3', 'M2']"
400117,"5 AV/EAST 90 ST","40.784","-73.958748","manhattan","['M4', 'M1', 'M3', 'M2']"
400118,"5 AV/EAST 87 ST","40.782188","-73.960052","manhattan","['M4', 'M1', 'M3', 'M2']"
400119,"5 AV/EAST 84 ST","40.780434","-73.961319","manhattan","['M4', 'M1', 'M3', 'M2']"
400122,"5 AV/EAST 77 ST","40.775612","-73.964836","manhattan","['M4', 'M1', 'M3', 'M2']"
400123,"5 AV/EAST 75 ST","40.774357","-73.965775","manhattan","['M4', 'M1', 'M3', 'M2']"
400124,"5 AV/EAST 72 ST","40.771767","-73.967552","manhattan","['M72', 'BXM7', 'BXM10', 'BXM6', 'M4', 'M1', 'M3', 'M2', 'BXM9', 'BXM8']"
400125,"5 AV/EAST 69 ST","40.77026","-73.968742","manhattan","['M72', 'BXM11', 'M4', 'BXM3', 'M1', 'BXM4', 'M3', 'M2']"
400126,"5 AV/EAST 65 ST","40.768234","-73.970238","manhattan","['M4', 'M1', 'M3', 'M2']"
400127,"5 AV/EAST 63 ST","40.767365","-73.970863","manhattan","['M4', 'M1', 'M3', 'M2']"
400128,"5 AV/EAST 62 ST","40.766083","-73.971779","manhattan","['M4', 'BXM3', 'M1', 'BXM4', 'M3', 'M2']"
400134,"5 AV/W 44 ST","40.754517","-73.980247","brooklyn","['X68', 'X27', 'X38', 'X28', 'X37']"
400134,"5 AV/W 44 ST","40.754517","-73.980247","queens","['X68', 'X27', 'X38', 'X28', 'X37']"
400135,"5 AV/W 42 ST","40.753159","-73.981239","queens","['X68']"
400144,"PARK AV SOUTH/E 26 ST","40.742199","-73.985054","staten","['X10', 'X10B', 'X17']"
400145,"PARK AV SOUTH/E 21 ST","40.739323","-73.987114","staten","['X10B', 'X10', 'X12', 'X1', 'X7', 'X17']"
400153,"BROADWAY/WAVERLY PL","40.729401","-73.993515","staten","['M5', 'X9', 'X10B', 'X10', 'X12', 'X7']"
400153,"BROADWAY/WAVERLY PL","40.729401","-73.993515","manhattan","['M5', 'X9', 'X10B', 'X10', 'X12', 'X7']"
400154,"BROADWAY/W 3 ST","40.727539","-73.995102","manhattan","['M5']"
400155,"BROADWAY/BLEECKER ST","40.726261","-73.99617","manhattan","['M5']"
400157,"BROADWAY/SPRING ST","40.722843","-73.999069","manhattan","['M5']"
400161,"BROADWAY/WALKER ST","40.718758","-74.002541","manhattan","['M5', 'BXM18']"
400162,"BROADWAY/WHITE ST","40.717808","-74.003334","manhattan","['M5']"
400163,"BROADWAY/THOMAS ST","40.715832","-74.00502","manhattan","['M5', 'X19', 'X1']"
400163,"BROADWAY/THOMAS ST","40.715832","-74.00502","staten","['M5', 'X19', 'X1']"
400165,"BROADWAY/READE ST","40.714825","-74.005875","staten","['M5', 'X19', 'X17']"
400165,"BROADWAY/READE ST","40.714825","-74.005875","manhattan","['M5', 'X19', 'X17']"
400166,"BROADWAY/PARK PL","40.712677","-74.007668","manhattan","['M5']"
400167,"BROADWAY/FULTON ST","40.710781","-74.009247","manhattan","['M5']"
400168,"BROADWAY/CORTLANDT ST","40.709969","-74.009941","manhattan","['M5']"
400170,"BROADWAY/RECTOR ST","40.707554","-74.011963","manhattan","['M5']"
400171,"BROADWAY/MORRIS ST","40.705631","-74.013557","manhattan","['M5', 'BXM18']"
400176,"E 9 ST/BROADWAY","40.731426","-73.992409","manhattan","['M8']"
400186,"MADISON AV/E 27 ST","40.74366","-73.985847","staten","['X2', 'X14', 'X5']"
400224,"CENTRAL PK N/MALCOLM X BL","40.798347","-73.952606","manhattan","['M4', 'M3', 'M2']"
400225,"CENTRAL PK N/ADAM C POWELL BL","40.799393","-73.955078","manhattan","['M4', 'M3', 'M2']"
400226,"ADAM C POWELL BL/W 113 ST","40.801483","-73.953583","manhattan","['M2']"
400227,"ADAM C POWELL BL/W 137 ST","40.816788","-73.942406","manhattan","['M2']"
400228,"ADAM C POWELL BL/W 116 ST","40.803425","-73.952156","manhattan","['M2']"
400230,"ADAM C POWELL BL/W 121 ST","40.806599","-73.949844","manhattan","['M2']"
400231,"ADAM C POWELL BL/W 123 ST","40.807522","-73.949173","manhattan","['M2']"
400233,"ADAM C POWELL BL/W 127 ST","40.810474","-73.947006","manhattan","['M2']"
400234,"ADAM C POWELL BL/W 129 ST","40.811718","-73.946106","manhattan","['M2']"
400236,"ADAM C POWELL BL/W 133 ST","40.81419","-73.944298","manhattan","['M2']"
400237,"ADAM C POWELL BL/W 135 ST","40.815548","-73.943306","manhattan","['M2']"
400238,"ADAM C POWELL BL/W 139 ST","40.818035","-73.94149","manhattan","['M2']"
400239,"ADAM C POWELL BL/W 141 ST","40.819298","-73.940575","manhattan","['M2']"
400240,"ADAM C POWELL BL/W 143 ST","40.820515","-73.939682","manhattan","['M2']"
400241,"ADAM C POWELL BL/W 145 ST","40.82188","-73.93869","manhattan","['M2']"
400242,"ADAM C POWELL BL/W 147 ST","40.823105","-73.93779","manhattan","['M2']"
400248,"EDGECOMBE AV/W 155 ST","40.830906","-73.940277","manhattan","['M2']"
400249,"EDGECOMBE AV/W 158 ST","40.832912","-73.939461","manhattan","['M2']"
400250,"EDGECOMBE AV/W 160 ST","40.834045","-73.938133","manhattan","['M2']"
400251,"EDGECOMBE AV/W 162 ST","40.835243","-73.937492","manhattan","['M2']"
400252,"EDGECOMBE AV/W 164 ST","40.836658","-73.936852","manhattan","['M2']"
400258,"BROADWAY/W 168 ST","40.841003","-73.939865","manhattan","['M3', 'M2']"
400259,"W 166 ST/ST NICHOLAS AV","40.839622","-73.940186","bronx","['M100', 'M3', 'M2']"
400259,"W 166 ST/ST NICHOLAS AV","40.839622","-73.940186","manhattan","['M100', 'M3', 'M2']"
400263,"EDGECOMBE AV/W 164 ST","40.83622","-73.937233","manhattan","['M2']"
400264,"EDGECOMBE AV/W 162 ST","40.835011","-73.937775","manhattan","['M2']"
400265,"EDGECOMBE AV/W 160 ST","40.833652","-73.93882","manhattan","['M2']"
400266,"EDGECOMBE AV/W 158 ST","40.83242","-73.939903","manhattan","['M2']"
400267,"EDGECOMBE AV/W 155 ST","40.83062","-73.940437","manhattan","['M2']"
400268,"W 155 ST/EDGECOMBE AV","40.830372","-73.940254","bronx","['M2', 'BX6']"
400268,"W 155 ST/EDGECOMBE AV","40.830372","-73.940254","manhattan","['M2', 'BX6']"
400270,"W 155 ST/MACOMBS PL","40.828438","-73.93573","manhattan","['M2']"
400271,"ADAM C POWELL BL/W 154 ST","40.827305","-73.935387","manhattan","['M2']"
400272,"ADAM C POWELL BL/W 151 ST","40.826061","-73.936081","manhattan","['M2']"
400273,"ADAM C POWELL BL/W 150 ST","40.824627","-73.937103","manhattan","['M2']"
400274,"ADAM C POWELL BL/W 148 ST","40.823364","-73.938026","manhattan","['M2']"
400275,"ADAM C POWELL BL/W 145 ST","40.821388","-73.939468","manhattan","['M2']"
400276,"ADAM C POWELL BL/W 142 ST","40.819534","-73.940819","manhattan","['M2']"
400277,"ADAM C POWELL BL/W 140 ST","40.818302","-73.941719","manhattan","['M2']"
400278,"ADAM C POWELL BL/W 138 ST","40.817028","-73.942665","manhattan","['M2']"
400279,"ADAM C POWELL BL/W 135 ST","40.815277","-73.943909","manhattan","['M2']"
400280,"ADAM C POWELL BL/W 132 ST","40.813133","-73.945396","manhattan","['M2']"
400281,"ADAM C POWELL BL/W 130 ST","40.812038","-73.946259","manhattan","['M2']"
400282,"ADAM C POWELL BL/W 128 ST","40.810699","-73.947258","manhattan","['M2']"
400283,"ADAM C POWELL BL/W 125 ST","40.809181","-73.94838","manhattan","['M2']"
400284,"ADAM C POWELL BL/W 122 ST","40.806839","-73.950096","manhattan","['M2']"
400285,"ADAM C POWELL BL/W 120 ST","40.805603","-73.950996","manhattan","['M2']"
400287,"ADAM C POWELL BL/W 116 ST","40.803593","-73.952431","manhattan","['M2']"
400288,"ADAM C POWELL BL/W 114 ST","40.801716","-73.953835","manhattan","['M2']"
400289,"ADAM C POWELL BL/W 112 ST","40.800461","-73.95475","manhattan","['M2']"
400290,"CENTRAL PK N/ADAM C POWELL BL","40.799175","-73.954857","manhattan","['M4', 'M3', 'M2']"
400292,"CENTRAL PK N/5 AV","40.796597","-73.949577","manhattan","['M4', 'M3']"
400316,"5 AV/W 56 ST","40.762016","-73.974785","queens","['X68', 'X63', 'X64']"
400323,"5 AV/W 36 ST","40.749477","-73.983925","staten","['X9', 'X1', 'X7']"
400324,"5 AV/W 33 ST","40.747509","-73.985359","manhattan","['X68', 'M5', 'BXM3', 'M1', 'BXM4', 'M3', 'M2']"
400324,"5 AV/W 33 ST","40.747509","-73.985359","queens","['X68', 'M5', 'BXM3', 'M1', 'BXM4', 'M3', 'M2']"
400325,"5 AV/W 31 ST","40.746262","-73.986267","manhattan","['M5', 'M1', 'M3', 'M2']"
400326,"5 AV/W 29 ST","40.745071","-73.987137","manhattan","['M5', 'M1', 'M3', 'M2']"
400327,"5 AV/W 26 ST","40.743153","-73.988541","manhattan","['X68', 'BXM18', 'BXM11', 'X63', 'X64', 'M5', 'BXM3', 'M1', 'BXM4', 'M3', 'M2']"
400327,"5 AV/W 26 ST","40.743153","-73.988541","queens","['X68', 'BXM18', 'BXM11', 'X63', 'X64', 'M5', 'BXM3', 'M1', 'BXM4', 'M3', 'M2']"
400329,"5 AV/W 23 ST","40.741241","-73.990059","manhattan","['M5', 'M1', 'M3', 'M2']"
400330,"5 AV/W 20 ST","40.739407","-73.991257","manhattan","['M5', 'M1', 'M3', 'M2']"
400331,"5 AV/W 17 ST","40.737671","-73.992523","manhattan","['M5', 'M1', 'M3', 'M2']"
400333,"5 AV/W 12 ST","40.73447","-73.99485","manhattan","['M5', 'M1', 'M3', 'M2']"
400334,"5 AV/W 10 ST","40.733223","-73.99575","manhattan","['M5', 'M1', 'M3', 'M2']"
400335,"E 8 ST/5 AV","40.731998","-73.995926","manhattan","['M5', 'M1', 'M3', 'M2']"
400336,"E 8 ST/UNIVERSITY PL","40.731419","-73.994499","manhattan","['M5', 'M1', 'M8', 'M2']"
400337,"E 8 ST/MERCER ST","40.730709","-73.992836","manhattan","['M5', 'M1', 'M8', 'M3', 'M2']"
400352,"MADISON AV/E 30 ST","40.74551","-73.984489","manhattan","['M1', 'M3', 'M2']"
400353,"MADISON AV/E 32 ST","40.746582","-73.983627","queens","['Q32', 'M4']"
400353,"MADISON AV/E 32 ST","40.746582","-73.983627","manhattan","['Q32', 'M4']"
400354,"MADISON AV/EAST 34 - 35 ST","40.748329","-73.982437","queens","['X42', 'X10B', 'X22A', 'M1', 'M3', 'M2', 'X12', 'X22', 'Q32', 'X2', 'X5', 'X31', 'BM2', 'BM3', 'BM1', 'BM4', 'BM5', 'X10', 'X17J', 'X14', 'X17', 'M4']"
400354,"MADISON AV/EAST 34 - 35 ST","40.748329","-73.982437","manhattan","['X42', 'X10B', 'X22A', 'M1', 'M3', 'M2', 'X12', 'X22', 'Q32', 'X2', 'X5', 'X31', 'BM2', 'BM3', 'BM1', 'BM4', 'BM5', 'X10', 'X17J', 'X14', 'X17', 'M4']"
400354,"MADISON AV/EAST 34 - 35 ST","40.748329","-73.982437","staten","['X42', 'X10B', 'X22A', 'M1', 'M3', 'M2', 'X12', 'X22', 'Q32', 'X2', 'X5', 'X31', 'BM2', 'BM3', 'BM1', 'BM4', 'BM5', 'X10', 'X17J', 'X14', 'X17', 'M4']"
400358,"MADISON AV/EAST 45 - 46 ST","40.755234","-73.977371","manhattan","['M4', 'Q32', 'M1', 'M3', 'M2']"
400358,"MADISON AV/EAST 45 - 46 ST","40.755234","-73.977371","queens","['M4', 'Q32', 'M1', 'M3', 'M2']"
400359,"MADISON AV/EAST 47 - 48 ST","40.756508","-73.976463","manhattan","['X30', 'X31', 'X22A', 'M4', 'Q32', 'M1', 'M3', 'M2', 'X2', 'X5', 'X22']"
400359,"MADISON AV/EAST 47 - 48 ST","40.756508","-73.976463","staten","['X30', 'X31', 'X22A', 'M4', 'Q32', 'M1', 'M3', 'M2', 'X2', 'X5', 'X22']"
400359,"MADISON AV/EAST 47 - 48 ST","40.756508","-73.976463","queens","['X30', 'X31', 'X22A', 'M4', 'Q32', 'M1', 'M3', 'M2', 'X2', 'X5', 'X22']"
400360,"MADISON AV/EAST 49 - 50 ST","40.757755","-73.975548","manhattan","['M4', 'Q32', 'M1', 'M3', 'M2']"
400360,"MADISON AV/EAST 49 - 50 ST","40.757755","-73.975548","queens","['M4', 'Q32', 'M1', 'M3', 'M2']"
400361,"MADISON AV/EAST 52 - 53 ST","40.759636","-73.974182","queens","['M4', 'Q32', 'M1', 'M3', 'M2']"
400361,"MADISON AV/EAST 52 - 53 ST","40.759636","-73.974182","manhattan","['M4', 'Q32', 'M1', 'M3', 'M2']"
400362,"MADISON AV/EAST 55 - 56 ST","40.761509","-73.972809","queens","['M4', 'Q32', 'M1', 'M3', 'M2']"
400362,"MADISON AV/EAST 55 - 56 ST","40.761509","-73.972809","manhattan","['M4', 'Q32', 'M1', 'M3', 'M2']"
400363,"MADISON AV/E 57 ST","40.762859","-73.97184","queens","['M4', 'Q32', 'M1', 'M3', 'M2']"
400363,"MADISON AV/E 57 ST","40.762859","-73.97184","manhattan","['M4', 'Q32', 'M1', 'M3', 'M2']"
400364,"MADISON AV/EAST 60 - 61 ST","40.764675","-73.970474","manhattan","['M4', 'M1', 'M3', 'M2']"
400390,"CATHEDRAL PY/FRED DOUGLASS BL","40.800743","-73.958511","manhattan","['M4', 'M3']"
400394,"MANHATTAN AV/W 116 ST","40.804878","-73.956841","manhattan","['M7', 'M116', 'M3']"
400395,"MANHATTAN AV/W 119 ST","40.807171","-73.95517","manhattan","['M3']"
400396,"MANHATTAN AV/W 121 ST","40.808449","-73.954239","manhattan","['M3']"
400398,"ST NICHOLAS AV/W 127 ST","40.812206","-73.951157","manhattan","['M3']"
400399,"ST NICHOLAS AV/W 130 ST","40.814014","-73.949577","manhattan","['M3']"
400400,"ST NICHOLAS AV/W 133 ST","40.815575","-73.948608","manhattan","['M3']"
400401,"ST NICHOLAS AV/W 135 ST","40.81728","-73.947884","manhattan","['M3']"
400403,"ST NICHOLAS AV/W 139 ST","40.820152","-73.94648","manhattan","['M3']"
400404,"ST NICHOLAS AV/W 141 ST","40.821136","-73.946007","manhattan","['M3']"
400405,"ST NICHOLAS AV/W 144 ST","40.82328","-73.945038","manhattan","['M3']"
400406,"ST NICHOLAS AV/W 145 ST","40.824337","-73.944405","manhattan","['M3']"
400408,"ST NICHOLAS AV/W 151 ST","40.828323","-73.942276","manhattan","['M3']"
400409,"ST NICHOLAS AV/W 153 ST","40.829643","-73.941742","manhattan","['M3']"
400414,"ST NICHOLAS AV/W 163 ST","40.837013","-73.940041","bronx","['M100', 'M3']"
400414,"ST NICHOLAS AV/W 163 ST","40.837013","-73.940041","manhattan","['M100', 'M3']"
400418,"ST NICHOLAS AV/W 170 ST","40.842529","-73.938553","manhattan","['M3']"
400419,"ST NICHOLAS AV/W 173 ST","40.844406","-73.937187","manhattan","['M3']"
400422,"ST NICHOLAS AV/W 179 ST","40.848225","-73.934395","manhattan","['M3']"
400423,"ST NICHOLAS AV/W 181 ST","40.849571","-73.933418","manhattan","['M3']"
400426,"ST NICHOLAS AV/W 187 ST","40.853359","-73.930641","manhattan","['M3']"
400448,"ST NICHOLAS AV/W 192 ST","40.856289","-73.928764","manhattan","['M101', 'M3']"
400449,"ST NICHOLAS AV/W 190 ST","40.854496","-73.930038","manhattan","['M3']"
400452,"ST NICHOLAS AV/W 184 ST","40.850792","-73.932785","manhattan","['M3']"
400453,"ST NICHOLAS AV/W 181 ST","40.849014","-73.934082","manhattan","['M3']"
400454,"ST NICHOLAS AV/W 178 ST","40.847481","-73.935165","manhattan","['M3']"
400457,"ST NICHOLAS AV/W 172 ST","40.843216","-73.938316","manhattan","['M3']"
400459,"BROADWAY/W 168 ST","40.841183","-73.939781","bronx","['M100', 'BX7']"
400461,"ST NICHOLAS AV/W 164 ST","40.837566","-73.94017","bronx","['M100', 'M3']"
400461,"ST NICHOLAS AV/W 164 ST","40.837566","-73.94017","manhattan","['M100', 'M3']"
400462,"ST NICHOLAS AV/W 162 ST","40.836269","-73.940109","bronx","['M100', 'M3']"
400462,"ST NICHOLAS AV/W 162 ST","40.836269","-73.940109","manhattan","['M100', 'M3']"
400466,"ST NICHOLAS AV/W 152 ST","40.828861","-73.942261","manhattan","['M3']"
400467,"ST NICHOLAS AV/W 150 ST","40.827446","-73.942848","manhattan","['M3']"
400468,"ST NICHOLAS AV/W 148 ST","40.82571","-73.943672","manhattan","['M3']"
400469,"ST NICHOLAS AV/W 145 ST","40.823765","-73.94503","manhattan","['M3']"
400470,"ST NICHOLAS AV/W 142 ST","40.822296","-73.945724","manhattan","['M3']"
400471,"ST NICHOLAS AV/W 141 ST","40.821041","-73.946304","manhattan","['M3']"
400472,"ST NICHOLAS AV/W 138 ST","40.818939","-73.947281","manhattan","['M3']"
400473,"ST NICHOLAS AV/W 135 ST","40.817181","-73.948097","manhattan","['M3']"
400474,"ST NICHOLAS AV/W 133 ST","40.815369","-73.948944","manhattan","['M3']"
400475,"ST NICHOLAS AV/W 130 ST","40.813469","-73.950233","manhattan","['M3']"
400476,"ST NICHOLAS AV/W 128 ST","40.812809","-73.950844","manhattan","['M3']"
400477,"ST NICHOLAS AV/W 125 ST","40.810493","-73.952927","manhattan","['M3']"
400479,"MANHATTAN AV/W 122 ST","40.808628","-73.954292","manhattan","['M3']"
400482,"MANHATTAN AV/W 116 ST","40.804752","-73.957123","manhattan","['M7', 'M116', 'M3']"
400483,"MANHATTAN AV/W 114 ST","40.803829","-73.957787","manhattan","['M7', 'M116', 'M3']"
400484,"MANHATTAN AV/W 112 ST","40.802216","-73.958969","manhattan","['M7', 'M116', 'M3']"
400485,"CATHEDRAL PY/MANHATTAN AV","40.801048","-73.959572","manhattan","['M4', 'M3']"
400486,"CENTRAL PK N/CENTRAL PK W","40.800358","-73.957726","manhattan","['M4', 'M3']"
400512,"5 AV/WEST 60 - 59 ST","40.76445","-73.973015","manhattan","['M4', 'M1', 'M3', 'M2']"
400514,"5 AV/WEST 53","40.759926","-73.976303","manhattan","['Q32', 'M5', 'M4', 'M1', 'M3', 'M2']"
400514,"5 AV/WEST 53","40.759926","-73.976303","queens","['Q32', 'M5', 'M4', 'M1', 'M3', 'M2']"
400515,"5 AV/W 49 ST","40.75803","-73.977676","queens","['M4', 'M1', 'Q32']"
400515,"5 AV/W 49 ST","40.75803","-73.977676","manhattan","['M4', 'M1', 'Q32']"
400516,"5 AV/WEST 47 - 46 ST","40.756157","-73.97905","queens","['Q32', 'M5', 'M4', 'M1', 'M3', 'M2']"
400516,"5 AV/WEST 47 - 46 ST","40.756157","-73.97905","manhattan","['Q32', 'M5', 'M4', 'M1', 'M3', 'M2']"
400518,"5 AV/WEST 42 - 41 ST","40.753021","-73.981346","manhattan","['Q32', 'M5', 'M4', 'M1', 'M3', 'M2']"
400518,"5 AV/WEST 42 - 41 ST","40.753021","-73.981346","queens","['Q32', 'M5', 'M4', 'M1', 'M3', 'M2']"
400519,"5 AV/WEST 38 ST","40.750839","-73.982918","queens","['Q32', 'M5', 'M4', 'M1', 'M3', 'M2']"
400519,"5 AV/WEST 38 ST","40.750839","-73.982918","manhattan","['Q32', 'M5', 'M4', 'M1', 'M3', 'M2']"
400520,"5 AV/WEST 35 ST","40.749237","-73.9841","queens","['Q32', 'M5', 'M4', 'M1', 'M3', 'M2']"
400520,"5 AV/WEST 35 ST","40.749237","-73.9841","manhattan","['Q32', 'M5', 'M4', 'M1', 'M3', 'M2']"
400552,"W 32 ST/7 AV","40.749405","-73.99102","manhattan","['Q32', 'M4']"
400552,"W 32 ST/7 AV","40.749405","-73.99102","queens","['Q32', 'M4']"
400555,"E 32 ST/5 AV","40.746986","-73.985374","manhattan","['X10', 'Q32', 'X17', 'X10B', 'M4']"
400555,"E 32 ST/5 AV","40.746986","-73.985374","queens","['X10', 'Q32', 'X17', 'X10B', 'M4']"
400555,"E 32 ST/5 AV","40.746986","-73.985374","staten","['X10', 'Q32', 'X17', 'X10B', 'M4']"
400561,"MADISON AV/E 42 ST","40.753338","-73.97876","queens","['M4', 'Q32', 'M1', 'M3', 'M2']"
400561,"MADISON AV/E 42 ST","40.753338","-73.97876","manhattan","['M4', 'Q32', 'M1', 'M3', 'M2']"
400595,"CATHEDRAL PY/MANHATTAN AV","40.801418","-73.959953","manhattan","['M4']"
400596,"CATHEDRAL PY/MORNINGSIDE DR","40.802017","-73.961395","manhattan","['M4']"
400597,"CATHEDRAL PY/AMSTERDAM AV","40.803219","-73.964211","manhattan","['M4']"
400598,"CATHEDRAL PY/BROADWAY","40.804142","-73.966438","manhattan","['M4']"
400599,"RIVERSIDE DR/W 112 ST","40.806297","-73.967667","manhattan","['M5']"
400602,"RIVERSIDE DR/W 119 ST","40.810909","-73.964172","manhattan","['M5']"
400609,"BROADWAY/W 137 ST","40.821239","-73.95401","manhattan","['M5', 'M4']"
400610,"BROADWAY/W 139 ST","40.822815","-73.952873","manhattan","['M5', 'M4']"
400611,"BROADWAY/W 141 ST","40.824081","-73.95195","manhattan","['M5', 'M4']"
400612,"BROADWAY/W 143 ST","40.825314","-73.95105","manhattan","['M5', 'M4']"
400613,"BROADWAY/W 145 ST","40.82679","-73.949966","manhattan","['M5', 'M4']"
400614,"BROADWAY/W 147 ST","40.827915","-73.949142","manhattan","['M5', 'M4']"
400615,"BROADWAY/W 149 ST","40.829166","-73.948235","manhattan","['M5', 'M4']"
400616,"BROADWAY/W 151 ST","40.830414","-73.947319","manhattan","['M5', 'M4']"
400617,"BROADWAY/W 153 ST","40.831699","-73.946388","manhattan","['M5', 'M4']"
400618,"BROADWAY/W 155 ST","40.832993","-73.945442","manhattan","['M5', 'M4']"
400619,"BROADWAY/W 157 ST","40.834259","-73.944519","manhattan","['M5', 'M4']"
400620,"BROADWAY/W 159 ST","40.835518","-73.943596","manhattan","['M5', 'M4']"
400621,"BROADWAY/W 161 ST","40.836739","-73.942703","manhattan","['M5', 'M4']"
400622,"BROADWAY/W 163 ST","40.838005","-73.941772","manhattan","['M5', 'M4']"
400623,"BROADWAY/W 165 ST","40.839363","-73.940788","manhattan","['M5']"
400624,"BROADWAY/W 167 ST","40.840343","-73.940193","manhattan","['M5']"
400626,"FT WASHINGTON AV/W 171 ST","40.844315","-73.940872","manhattan","['M4']"
400627,"FT WASHINGTON AV/W 173 ST","40.845699","-73.9403","manhattan","['M4']"
400628,"FT WASHINGTON AV/W 175 ST","40.846825","-73.939842","manhattan","['M4']"
400629,"FT WASHINGTON AV/W 177 ST","40.847893","-73.939377","manhattan","['M4']"
400631,"FT WASHINGTON AV/W 181 ST","40.851204","-73.93808","manhattan","['M4', 'M98']"
400632,"FT WASHINGTON AV/W 183 ST","40.852398","-73.937653","manhattan","['M4', 'M98']"
400633,"FT WASHINGTON AV/W 185 ST","40.853638","-73.937263","manhattan","['M4', 'M98']"
400634,"FT WASHINGTON AV/W 187 ST","40.855072","-73.936722","manhattan","['M4', 'M98']"
400635,"FT WASHINGTON AV/W 190 ST","40.857334","-73.935333","manhattan","['M4', 'M98']"
400636,"FT WASHINGTON AV/CABRINI BL","40.859013","-73.93425","manhattan","['M4', 'M98']"
400639,"FT WASHINGTON AV/CABRINI BL","40.859211","-73.93428","manhattan","['M4', 'M98']"
400640,"FT WASHINGTON AV/W 190 ST","40.856808","-73.935921","manhattan","['M4', 'M98']"
400641,"FT WASHINGTON AV/W 187 ST","40.854824","-73.937065","manhattan","['M4', 'M98']"
400642,"FT WASHINGTON AV/W 185 ST","40.853134","-73.937592","manhattan","['M4', 'M98']"
400643,"FT WASHINGTON AV/W 183 ST","40.851891","-73.937988","manhattan","['M4', 'M98']"
400644,"FT WASHINGTON AV/W 181 ST","40.850636","-73.938484","manhattan","['M4', 'M98']"
400646,"FT WASHINGTON AV/W 177 ST","40.847584","-73.93972","manhattan","['M4']"
400647,"FT WASHINGTON AV/W 174 ST","40.845856","-73.940407","manhattan","['M4']"
400648,"FT WASHINGTON AV/W 172 ST","40.844437","-73.940979","manhattan","['M4']"
400649,"FT WASHINGTON AV/W 170 ST","40.843204","-73.94191","manhattan","['M4']"
400655,"BROADWAY/W 157 ST","40.834244","-73.944962","manhattan","['M5', 'M4']"
400656,"BROADWAY/W 155 ST","40.832512","-73.946228","manhattan","['M5', 'M4']"
400657,"BROADWAY/W 152 ST","40.830669","-73.947578","manhattan","['M5', 'M4']"
400658,"BROADWAY/W 150 ST","40.829399","-73.948494","manhattan","['M5', 'M4']"
400659,"BROADWAY/W 147 ST","40.827515","-73.949883","manhattan","['M5', 'M4']"
400661,"BROADWAY/W 142 ST","40.824318","-73.952209","manhattan","['M5', 'M4']"
400662,"BROADWAY/W 140 ST","40.823074","-73.953125","manhattan","['M5', 'M4']"
400663,"BROADWAY/W 138 ST","40.821842","-73.954025","manhattan","['M5', 'M4']"
400676,"CATHEDRAL PY/BROADWAY","40.803864","-73.966202","manhattan","['M4']"
400677,"CATHEDRAL PY/AMSTERDAM AV","40.802723","-73.963509","manhattan","['M11', 'M4']"
400678,"CATHEDRAL PY/COLUMBUS AV","40.80151","-73.960793","manhattan","['M4']"
400716,"W 34 ST/BROADWAY","40.749981","-73.988052","queens","['Q32', 'M4', 'M34A+', 'M34+']"
400716,"W 34 ST/BROADWAY","40.749981","-73.988052","manhattan","['Q32', 'M4', 'M34A+', 'M34+']"
400719,"W HOUSTON ST/SULLIVAN ST","40.727901","-74.001541","manhattan","['M21']"
400720,"W HOUSTON ST/AV OF THE AMERICAS","40.728424","-74.002602","manhattan","['M21']"
400722,"AV OF THE AMERICAS/W 3 ST","40.730881","-74.001389","manhattan","['M5']"
400723,"AV OF THE AMERICAS/WAVERLY PL","40.733006","-73.99984","manhattan","['M5', 'X10B', 'X10', 'X12', 'X1', 'X17']"
400723,"AV OF THE AMERICAS/WAVERLY PL","40.733006","-73.99984","staten","['M5', 'X10B', 'X10', 'X12', 'X1', 'X17']"
400724,"AV OF THE AMERICAS/W 10 ST","40.734863","-73.998466","manhattan","['M5']"
400725,"AV OF THE AMERICAS/W 12 ST","40.736156","-73.997536","manhattan","['M5']"
400726,"AV OF THE AMERICAS/W 14 ST","40.737453","-73.996674","manhattan","['M5', 'M7', 'X10B', 'X10', 'X12', 'X1', 'X17']"
400726,"AV OF THE AMERICAS/W 14 ST","40.737453","-73.996674","staten","['M5', 'M7', 'X10B', 'X10', 'X12', 'X1', 'X17']"
400731,"AV OF THE AMERICAS/W 27 ST","40.745285","-73.990929","manhattan","['M5', 'M7']"
400732,"AV OF THE AMERICAS/W 29 ST","40.746536","-73.990013","manhattan","['M5', 'X9', 'M7', 'X1', 'X7']"
400732,"AV OF THE AMERICAS/W 29 ST","40.746536","-73.990013","staten","['M5', 'X9', 'M7', 'X1', 'X7']"
400744,"W 57 ST/7 AV","40.765762","-73.980385","manhattan","['X30', 'X42', 'M57', 'M31', 'X12', 'X14']"
400744,"W 57 ST/7 AV","40.765762","-73.980385","staten","['X30', 'X42', 'M57', 'M31', 'X12', 'X14']"
400745,"W 57 ST/BROADWAY","40.766544","-73.982239","manhattan","['M57', 'X12', 'M31', 'X42']"
400745,"W 57 ST/BROADWAY","40.766544","-73.982239","staten","['M57', 'X12', 'M31', 'X42']"
400747,"BROADWAY/W 63 ST","40.771858","-73.981987","manhattan","['M5', 'M7', 'BXM2', 'M104']"
400750,"BROADWAY/W 69 ST","40.776684","-73.981926","manhattan","['M5', 'M7', 'M104']"
400751,"W 72 ST/BROADWAY","40.779034","-73.982414","manhattan","['M5', 'M72', 'M57']"
400752,"W 72 ST/WEST END AV","40.780125","-73.98497","manhattan","['M5']"
400755,"RIVERSIDE DR/W 77 ST","40.783989","-73.983566","manhattan","['M5']"
400756,"RIVERSIDE DR/W 79 ST","40.785217","-73.982277","manhattan","['M5']"
400759,"RIVERSIDE DR/W 85 ST","40.789146","-73.980827","manhattan","['M5']"
400760,"RIVERSIDE DR/W 87 ST","40.790737","-73.979668","manhattan","['M5']"
400761,"RIVERSIDE DR/W 89 ST","40.791851","-73.978233","manhattan","['M5']"
400762,"RIVERSIDE DR/W 91 ST","40.792603","-73.977074","manhattan","['M5']"
400764,"RIVERSIDE DR/W 97 ST","40.796448","-73.974251","manhattan","['M5']"
400768,"RIVERSIDE DR/W 106 ST","40.802242","-73.970222","manhattan","['M5']"
400769,"RIVERSIDE DR/W 108 ST","40.803673","-73.969147","manhattan","['M5']"
400771,"RIVERSIDE DR/W 114 ST","40.807865","-73.966629","manhattan","['M5']"
400772,"RIVERSIDE DR/W 116 ST","40.809109","-73.965485","manhattan","['M5']"
400796,"BROADWAY/W 171 ST","40.84351","-73.939003","bronx","['M5', 'M100', 'BX7']"
400796,"BROADWAY/W 171 ST","40.84351","-73.939003","manhattan","['M5', 'M100', 'BX7']"
400798,"BROADWAY/W 175 ST","40.846478","-73.938248","bronx","['M5', 'M100', 'BX7']"
400798,"BROADWAY/W 175 ST","40.846478","-73.938248","manhattan","['M5', 'M100', 'BX7']"
400799,"W 178 ST/BROADWAY","40.84803","-73.936989","bronx","['BX36', 'BX11', 'BX13', 'M98']"
400799,"W 178 ST/BROADWAY","40.84803","-73.936989","manhattan","['BX36', 'BX11', 'BX13', 'M98']"
400808,"BROADWAY/W 178 ST","40.848522","-73.937706","bronx","['M5', 'M100', 'BX7']"
400808,"BROADWAY/W 178 ST","40.848522","-73.937706","manhattan","['M5', 'M100', 'BX7']"
400809,"BROADWAY/W 176 ST","40.846657","-73.938431","bronx","['M5', 'M100', 'BX7']"
400809,"BROADWAY/W 176 ST","40.846657","-73.938431","manhattan","['M5', 'M100', 'BX7']"
400810,"BROADWAY/W 174 ST","40.845169","-73.938866","bronx","['M5', 'M100', 'BX7']"
400810,"BROADWAY/W 174 ST","40.845169","-73.938866","manhattan","['M5', 'M100', 'BX7']"
400811,"BROADWAY/W 172 ST","40.843651","-73.939209","bronx","['M5', 'M100', 'BX7']"
400811,"BROADWAY/W 172 ST","40.843651","-73.939209","manhattan","['M5', 'M100', 'BX7']"
400812,"BROADWAY/W 170 ST","40.842567","-73.939308","bronx","['M5', 'M100', 'BX7']"
400812,"BROADWAY/W 170 ST","40.842567","-73.939308","manhattan","['M5', 'M100', 'BX7']"
400814,"BROADWAY/W 164 ST","40.838196","-73.94207","manhattan","['M5']"
400815,"BROADWAY/W 162 ST","40.836998","-73.942955","manhattan","['M5']"
400816,"BROADWAY/W 160 ST","40.835735","-73.943871","manhattan","['M5']"
400832,"RIVERSIDE DR/W 120 ST","40.811283","-73.964394","manhattan","['M5']"
400833,"RIVERSIDE DR/W 118 ST","40.810505","-73.964844","manhattan","['M5']"
400834,"RIVERSIDE DR/W 116 ST","40.80888","-73.966171","manhattan","['M5']"
400835,"RIVERSIDE DR/W 114 ST","40.807579","-73.967323","manhattan","['M5']"
400836,"RIVERSIDE DR/W 112 ST","40.806328","-73.967979","manhattan","['M5']"
400837,"RIVERSIDE DR/W 108 ST","40.803581","-73.969521","manhattan","['M5']"
400838,"RIVERSIDE DR/W 106 ST","40.802322","-73.970474","manhattan","['M5']"
400840,"RIVERSIDE DR/W 100 ST","40.798637","-73.974007","manhattan","['M5']"
400841,"RIVERSIDE DR/W 97 ST","40.79665","-73.974434","manhattan","['M5']"
400843,"RIVERSIDE DR/W 91 ST","40.79287","-73.977242","manhattan","['M5']"
400846,"RIVERSIDE DR/W 86 ST","40.789742","-73.980598","manhattan","['M5']"
400847,"RIVERSIDE DR/W 84 ST","40.78828","-73.981178","manhattan","['M5']"
400848,"RIVERSIDE DR/W 82 ST","40.78669","-73.981339","manhattan","['M5']"
400849,"RIVERSIDE DR/W 80 ST","40.78545","-73.982269","manhattan","['M5']"
400851,"RIVERSIDE DR/W 76 ST","40.783134","-73.984726","manhattan","['M5']"
400852,"RIVERSIDE DR/W 73 ST","40.78141","-73.985321","manhattan","['M5']"
400853,"W 72 ST/WEST END AV","40.779552","-73.984116","manhattan","['M5', 'M72', 'M57']"
400854,"W 72 ST/BROADWAY","40.778767","-73.982254","manhattan","['M57']"
400856,"BROADWAY/W 68 ST","40.775414","-73.982414","manhattan","['M5', 'M104']"
400857,"BROADWAY/W 66 ST","40.773563","-73.982407","manhattan","['M5', 'M104']"
400858,"BROADWAY/W 64 ST","40.771797","-73.982361","manhattan","['M5', 'M7', 'M20']"
400860,"BROADWAY/W 61 ST","40.76947","-73.982323","manhattan","['M5', 'M10', 'M7', 'M20', 'M104']"
400861,"COLUMBUS CIR/8 AV","40.767696","-73.982246","manhattan","['M5', 'M10', 'M7', 'M20', 'M104']"
400890,"W HOUSTON ST/GREENE ST","40.726231","-73.998161","manhattan","['M21']"
400892,"W 157 ST/EDWARD M MORGAN PL","40.834496","-73.945793","bronx","['BX6']"
400903,"STATE ST/BRIDGE ST","40.704208","-74.014191","staten","['M5', 'X8', 'M20', 'X15']"
400903,"STATE ST/BRIDGE ST","40.704208","-74.014191","manhattan","['M5', 'X8', 'M20', 'X15']"
400910,"CHURCH ST/CHAMBERS ST","40.714954","-74.007835","manhattan","['M5', 'BXM18']"
400911,"CHURCH ST/THOMAS ST","40.71637","-74.006676","staten","['X1']"
400913,"AV OF THE AMERICAS/WHITE ST","40.719318","-74.005051","manhattan","['M5']"
400915,"AV OF THE AMERICAS/THOMPSON ST","40.722301","-74.005249","manhattan","['M5']"
400917,"AV OF THE AMERICAS/SPRING ST","40.725624","-74.003876","brooklyn","['X27', 'X28', 'M21']"
400917,"AV OF THE AMERICAS/SPRING ST","40.725624","-74.003876","manhattan","['X27', 'X28', 'M21']"
400919,"AV OF THE AMERICAS/W HOUSTON ST","40.728699","-74.002541","manhattan","['M5']"
400929,"AV OF THE AMERICAS/W 23 ST","40.742973","-73.992554","manhattan","['M5', 'M7', 'X7']"
400929,"AV OF THE AMERICAS/W 23 ST","40.742973","-73.992554","staten","['M5', 'M7', 'X7']"
400933,"AV OF THE AMERICAS/W 34 ST","40.749882","-73.987534","staten","['M5', 'X9', 'M7', 'X1', 'X7']"
400933,"AV OF THE AMERICAS/W 34 ST","40.749882","-73.987534","manhattan","['M5', 'X9', 'M7', 'X1', 'X7']"
400936,"AV OF THE AMERICAS/W 42 ST","40.755108","-73.983788","manhattan","['M5', 'M7', 'X9']"
400936,"AV OF THE AMERICAS/W 42 ST","40.755108","-73.983788","staten","['M5', 'M7', 'X9']"
400938,"AV OF THE AMERICAS/W 47 ST","40.758289","-73.981468","manhattan","['M5', 'M7']"
400940,"AV OF THE AMERICAS/W 51 ST","40.76075","-73.979668","manhattan","['M5', 'M7']"
400941,"AV OF THE AMERICAS/W 54 ST","40.762619","-73.978302","manhattan","['M5', 'M7']"
400943,"CENTRAL PK S/6 AV","40.766129","-73.97702","manhattan","['M5', 'M7', 'BXM2']"
400948,"7 AV/WEST 58 ST","40.766136","-73.979691","manhattan","['M7', 'M20', 'M104']"
400950,"7 AV/W 54 ST","40.763699","-73.981483","manhattan","['M7', 'M104']"
400951,"7 AV/W 53 ST","40.762794","-73.982132","manhattan","['M7', 'M20', 'M104']"
400953,"7 AV/W 47 ST","40.759151","-73.984756","manhattan","['M104']"
401014,"CENTRAL PK S/7 AV","40.7672","-73.979584","manhattan","['M5', 'M7']"
401015,"CENTRAL PK S/COLUMBUS CI","40.767838","-73.981239","manhattan","['M5', 'M7']"
401016,"BROADWAY/W 61 ST","40.769516","-73.98188","manhattan","['M5', 'M7', 'M104']"
401021,"AMSTERDAM AV/W 72 ST","40.778923","-73.98127","manhattan","['M11', 'M7', 'BXM2']"
401022,"AMSTERDAM AV/W 75 ST","40.780224","-73.980316","manhattan","['M11', 'M7']"
401023,"AMSTERDAM AV/W 77 ST","40.782055","-73.978989","manhattan","['M11', 'M7']"
401024,"AMSTERDAM AV/W 79 ST","40.783279","-73.978088","manhattan","['M11', 'M79', 'M7']"
401025,"AMSTERDAM AV/W 81 ST","40.784687","-73.977074","manhattan","['M11', 'M7']"
401026,"AMSTERDAM AV/W 83 ST","40.785957","-73.976151","manhattan","['M11', 'M7']"
401027,"AMSTERDAM AV/W 86 ST","40.787952","-73.974693","manhattan","['M11', 'M7']"
401029,"AMSTERDAM AV/W 91 ST","40.791084","-73.972404","manhattan","['M11', 'M7']"
401030,"AMSTERDAM AV/W 93 ST","40.792343","-73.971481","manhattan","['M11', 'M7']"
401031,"AMSTERDAM AV/W 96 ST","40.794323","-73.970039","manhattan","['M11', 'M7']"
401032,"AMSTERDAM AV/W 98 ST","40.795601","-73.969109","manhattan","['M11', 'M7']"
401033,"AMSTERDAM AV/W 100 ST","40.796871","-73.968178","manhattan","['M11', 'M7']"
401034,"AMSTERDAM AV/W 102 ST","40.797989","-73.967361","manhattan","['M11', 'M7']"
401035,"AMSTERDAM AV/W 104 ST","40.799393","-73.966339","manhattan","['M11', 'M7']"
401036,"W 106 ST/AMSTERDAM AV","40.800186","-73.965355","manhattan","['M7', 'M116']"
401037,"W 106 ST/COLUMBUS AV","40.798988","-73.962524","manhattan","['M7', 'M116']"
401038,"MANHATTAN AV/W 106 ST","40.798939","-73.961182","manhattan","['M7', 'M116']"
401039,"MANHATTAN AV/W 109 ST","40.800472","-73.960052","manhattan","['M7', 'M116']"
401040,"MANHATTAN AV/CATHEDRAL PY","40.801479","-73.959312","manhattan","['M3']"
401044,"W 116 ST/FRED DOUGLASS BL","40.80423","-73.9552","manhattan","['M7', 'M116']"
401045,"W 116 ST/ADAM C POWELL BL","40.802906","-73.952034","manhattan","['M7', 'M116']"
401047,"MALCOLM X BL/W 119 ST","40.804173","-73.947945","manhattan","['M102', 'M7']"
401051,"MALCOLM X BL/W 127 ST","40.809383","-73.944138","manhattan","['M102', 'M7']"
401052,"MALCOLM X BL/W 129 ST","40.810635","-73.943222","manhattan","['M102', 'M7']"
401055,"MALCOLM X BL/W 135 ST","40.813931","-73.940834","manhattan","['M102', 'M7']"
401056,"MALCOLM X BL/W 137 ST","40.81575","-73.939484","manhattan","['M102', 'M7']"
401069,"MALCOLM X BL/W 135 ST","40.813713","-73.941322","manhattan","['M102', 'M7']"
401070,"MALCOLM X BL/W 132 ST","40.811954","-73.942604","manhattan","['M102', 'M7']"
401074,"MALCOLM X BL/W 122 ST","40.805595","-73.94725","manhattan","['M102', 'M7']"
401078,"W 116 ST/ST NICHOLAS AV","40.803562","-73.953094","manhattan","['M7', 'M116']"
401079,"W 116 ST/FRED DOUGLASS BL","40.80442","-73.955139","manhattan","['M7', 'M116']"
401084,"MANHATTAN AV/W 108 ST","40.799755","-73.960762","manhattan","['M7', 'M116']"
401085,"MANHATTAN AV/W 106 ST","40.798801","-73.961456","manhattan","['M7', 'M116']"
401086,"COLUMBUS AV/W 106 ST","40.798916","-73.963234","manhattan","['M11', 'M7']"
401087,"COLUMBUS AV/W 102 ST","40.797405","-73.964333","manhattan","['M11', 'M7']"
401088,"COLUMBUS AV/W 100 ST","40.795067","-73.966049","manhattan","['M11', 'M7']"
401090,"COLUMBUS AV/W 94 ST","40.79129","-73.968788","manhattan","['M11', 'M7']"
401091,"COLUMBUS AV/W 92 ST","40.790024","-73.969719","manhattan","['M11', 'M7']"
401092,"COLUMBUS AV/W 89 ST","40.788158","-73.971085","manhattan","['M11', 'M7']"
401093,"COLUMBUS AV/W 86 ST","40.786186","-73.972527","manhattan","['M11', 'M7']"
401094,"COLUMBUS AV/W 84 ST","40.784897","-73.973465","manhattan","['M11', 'M7']"
401096,"COLUMBUS AV/W 78 ST","40.780994","-73.976311","manhattan","['M11', 'M7']"
401099,"COLUMBUS AV/W 72 ST","40.777084","-73.979156","manhattan","['M11', 'M7', 'BXM2']"
401100,"COLUMBUS AV/W 69 ST","40.775227","-73.980515","manhattan","['M11', 'M7']"
401102,"COLUMBUS AV/W 63 ST","40.771839","-73.983009","manhattan","['M11']"
401139,"GRAND ST/CLINTON ST","40.715759","-73.986412","manhattan","['M14A']"
401140,"GRAND ST/PITT ST","40.715164","-73.984467","manhattan","['M14A']"
401141,"GRAND ST/EAST BROADWAY","40.714622","-73.982407","manhattan","['M14A']"
401142,"GRAND ST/JACKSON ST","40.714081","-73.980614","manhattan","['M14A']"
401147,"GRAND ST/ABRAHAM KAZAN ST","40.714485","-73.981453","manhattan","['M14A']"
401148,"GRAND ST/EAST BROADWAY","40.714928","-73.982979","manhattan","['M14A']"
401149,"GRAND ST/PITT ST","40.715374","-73.984444","manhattan","['M14A']"
401150,"GRAND ST/CLINTON ST","40.716095","-73.98687","manhattan","['M14A']"
401168,"E BROADWAY/FORSYTH ST","40.713657","-73.994049","manhattan","['M9']"
401169,"E BROADWAY/PIKE ST","40.713764","-73.992577","manhattan","['M9']"
401182,"E 14 ST/AV B","40.729519","-73.978111","manhattan","['M14D']"
401183,"E 14 ST/AV A","40.730495","-73.980469","manhattan","['M14D', 'M14A']"
401191,"E 14 ST/3 AV","40.733009","-73.986732","manhattan","['M14D', 'M14A']"
401192,"E 14 ST/2 AV","40.732082","-73.984535","manhattan","['M14D', 'M14A']"
401193,"E 14 ST/1 AV","40.731087","-73.98217","manhattan","['M14D', 'M14A']"
401194,"E 14 ST/AV A","40.730408","-73.980507","manhattan","['M14D', 'M14A']"
401195,"E 14 ST/AV B","40.72942","-73.978172","manhattan","['M14D']"
401202,"ESSEX ST/E HOUSTON ST","40.721859","-73.98661","manhattan","['M9', 'M14A']"
401206,"ESSEX ST/GRAND ST","40.716866","-73.989182","manhattan","['M9']"
401208,"E BROADWAY/PIKE ST","40.713947","-73.992386","manhattan","['M9']"
401209,"E BROADWAY/MARKET ST","40.71373","-73.99501","manhattan","['M9', 'M22']"
401210,"E BROADWAY/CATHERINE ST","40.713512","-73.997627","manhattan","['M9', 'M22']"
401220,"HUDSON ST/PERRY ST","40.735435","-74.00592","manhattan","['M20']"
401223,"8 AV/W 14 ST","40.739883","-74.002266","manhattan","['M20']"
401224,"8 AV/W 17 ST","40.741901","-74.000809","manhattan","['M20']"
401225,"8 AV/W 20 ST","40.743641","-73.999535","manhattan","['M20']"
401226,"8 AV/W 23 ST","40.745586","-73.998123","manhattan","['M20']"
401227,"8 AV/W 25 ST","40.746845","-73.9972","manhattan","['M20']"
401229,"8 AV/W 28 ST","40.748684","-73.995865","manhattan","['M20']"
401231,"8 AV/W 34 ST","40.752331","-73.993256","manhattan","['M20']"
401232,"8 AV/W 37 ST","40.75396","-73.992035","manhattan","['M20', 'M34A+']"
401239,"8 AV/W 52 ST","40.763786","-73.984871","manhattan","['M20', 'M104']"
401245,"CENTRAL PK W/W 66 ST","40.77264","-73.978424","manhattan","['M10', 'M72']"
401248,"CENTRAL PK W/W 72 ST","40.776516","-73.975594","manhattan","['M10']"
401250,"CENTRAL PK W/W 77 ST","40.779819","-73.97319","manhattan","['M10']"
401252,"CENTRAL PK W/W 81 ST","40.782234","-73.971481","manhattan","['M10']"
401253,"CENTRAL PK W/W 84 ST","40.784035","-73.970123","manhattan","['M10']"
401254,"CENTRAL PK W/W 86 ST","40.785465","-73.969086","manhattan","['M10']"
401255,"CENTRAL PK W/W 88 ST","40.78685","-73.968056","manhattan","['M10']"
401256,"CENTRAL PK W/W 90 ST","40.788059","-73.967178","manhattan","['M10']"
401257,"CENTRAL PK W/W 92 ST","40.789326","-73.966255","manhattan","['M10']"
401258,"CENTRAL PK W/W 94 ST","40.790539","-73.965363","manhattan","['M10']"
401259,"CENTRAL PK W/W 96 ST","40.791931","-73.964355","manhattan","['M10']"
401261,"CENTRAL PK W/W 100 ST","40.794506","-73.962471","manhattan","['M10']"
401262,"CENTRAL PK W/W 102 ST","40.79575","-73.961563","manhattan","['M10']"
401263,"CENTRAL PK W/W 104 ST","40.797035","-73.960632","manhattan","['M10']"
401264,"CENTRAL PK W/W 106 ST","40.798298","-73.959717","manhattan","['M10']"
401265,"CENTRAL PK W/W 108 ST","40.799629","-73.95874","manhattan","['M10']"
401266,"CENTRAL PK W/CATHEDRAL PY","40.800243","-73.958344","manhattan","['M10']"
401267,"FRED DOUGLASS BL/W 111 ST","40.801445","-73.957436","manhattan","['M10']"
401268,"FRED DOUGLASS BL/W 113 ST","40.80275","-73.956482","manhattan","['M10']"
401269,"FRED DOUGLASS BL/W 116 ST","40.804741","-73.955025","manhattan","['M10']"
401270,"FRED DOUGLASS BL/W 119 ST","40.806377","-73.953888","manhattan","['M10']"
401271,"FRED DOUGLASS BL/W 121 ST","40.807446","-73.953049","manhattan","['M10']"
401272,"FRED DOUGLASS BL/W 123 ST","40.809071","-73.951851","manhattan","['M10']"
401274,"FRED DOUGLASS BL/W 127 ST","40.811749","-73.94989","manhattan","['M10']"
401275,"FRED DOUGLASS BL/W 129 ST","40.812893","-73.949051","manhattan","['M10']"
401276,"FRED DOUGLASS BL/W 131 ST","40.81414","-73.948135","manhattan","['M10']"
401277,"FRED DOUGLASS BL/W 133 ST","40.815434","-73.947189","manhattan","['M10']"
401281,"FRED DOUGLASS BL/W 141 ST","40.820541","-73.943466","manhattan","['M10']"
401282,"FRED DOUGLASS BL/W 143 ST","40.821758","-73.942574","manhattan","['M10']"
401286,"FRED DOUGLASS BL/W 153 ST","40.828129","-73.93792","manhattan","['M10']"
401287,"FRED DOUGLASS BL/W 155 ST","40.829277","-73.93705","manhattan","['M10']"
401288,"FRED DOUGLASS BL/W 158 ST","40.831207","-73.935692","manhattan","['M10']"
401294,"W 14 ST/7 AV","40.738289","-73.999268","manhattan","['M14D', 'M7', 'M14A']"
401301,"HUDSON ST/CHARLTON ST","40.727184","-74.007248","manhattan","['M20']"
401302,"HUDSON ST/W HOUSTON ST","40.728935","-74.006927","manhattan","['M20']"
401305,"FRED DOUGLASS BL/W 155 ST","40.82909","-73.937454","manhattan","['M10']"
401306,"FRED DOUGLASS BL/W 154 ST","40.828308","-73.938049","manhattan","['M10']"
401307,"FRED DOUGLASS BL/W 152 ST","40.827019","-73.938995","manhattan","['M10']"
401308,"FRED DOUGLASS BL/W 150 ST","40.825951","-73.93972","manhattan","['M10']"
401310,"FRED DOUGLASS BL/W 145 ST","40.822521","-73.942284","manhattan","['M10']"
401311,"FRED DOUGLASS BL/W 142 ST","40.82066","-73.943642","manhattan","['M10']"
401312,"FRED DOUGLASS BL/W 140 ST","40.81942","-73.94455","manhattan","['M10']"
401313,"FRED DOUGLASS BL/W 138 ST","40.818184","-73.94545","manhattan","['M10']"
401314,"FRED DOUGLASS BL/W 135 ST","40.816208","-73.946892","manhattan","['M10']"
401315,"FRED DOUGLASS BL/W 133 ST","40.814919","-73.94783","manhattan","['M10']"
401317,"FRED DOUGLASS BL/W 129 ST","40.81282","-73.949364","manhattan","['M10']"
401324,"FRED DOUGLASS BL/W 112 ST","40.801643","-73.957504","manhattan","['M10']"
401325,"FRED DOUGLASS BL/CATHEDRAL PY","40.800938","-73.957993","manhattan","['M10']"
401326,"CENTRAL PK W/W 108 ST","40.799137","-73.959366","manhattan","['M10']"
401327,"CENTRAL PK W/W 106 ST","40.798119","-73.960068","manhattan","['M10']"
401328,"CENTRAL PK W/W 104 ST","40.796513","-73.961273","manhattan","['M10']"
401329,"CENTRAL PK W/W 102 ST","40.795277","-73.962189","manhattan","['M10']"
401330,"CENTRAL PK W/W 100 ST","40.793949","-73.96315","manhattan","['M10']"
401331,"CENTRAL PK W/W 97 ST","40.792267","-73.964386","manhattan","['M10', 'M106', 'M96']"
401333,"CENTRAL PK W/W 94 ST","40.790108","-73.965965","manhattan","['M10']"
401334,"CENTRAL PK W/W 92 ST","40.788895","-73.96685","manhattan","['M10']"
401335,"CENTRAL PK W/W 90 ST","40.787621","-73.967773","manhattan","['M10']"
401336,"CENTRAL PK W/W 88 ST","40.786526","-73.968513","manhattan","['M10']"
401337,"CENTRAL PK W/W 86 ST","40.785042","-73.969688","manhattan","['M10']"
401338,"CENTRAL PK W/W 84 ST","40.783749","-73.970596","manhattan","['M10']"
401339,"CENTRAL PK W/W 81 ST","40.781963","-73.971886","manhattan","['M10']"
401341,"CENTRAL PK W/W 77 ST","40.7794","-73.973785","manhattan","['M10']"
401342,"CENTRAL PK W/W 74 ST","40.777466","-73.975182","manhattan","['M10']"
401343,"CENTRAL PK W/W 72 ST","40.776131","-73.976189","manhattan","['M10']"
401344,"CENTRAL PK W/W 70 ST","40.774837","-73.977158","manhattan","['M72', 'M10']"
401345,"CENTRAL PK W/W 68 ST","40.773571","-73.978043","manhattan","['M72', 'M10']"
401348,"BROADWAY/W 63 ST","40.770882","-73.982338","manhattan","['M10', 'BXM2', 'M20']"
401358,"7 AV/W 39 ST","40.753838","-73.988678","manhattan","['M7', 'M20']"
401359,"7 AV/W 37 ST","40.752613","-73.989578","manhattan","['M7', 'M20']"
401360,"7 AV/W 34 ST","40.750629","-73.99102","manhattan","['M7', 'BXM2', 'M20']"
401361,"7 AV/W 31 ST","40.748859","-73.99231","manhattan","['M7', 'M20']"
401363,"7 AV/W 28 ST","40.747036","-73.993637","manhattan","['M7', 'M20']"
401364,"7 AV/W 25 ST","40.745178","-73.994995","manhattan","['M7', 'M20']"
401366,"7 AV/W 20 ST","40.742027","-73.997284","manhattan","['M7', 'M20']"
401371,"7 AV S/WAVERLY PL","40.735237","-74.001999","manhattan","['M20']"
401372,"7 AV S/W 10 ST","40.734112","-74.002647","manhattan","['M20']"
401373,"7 AV S/BARROW ST","40.732574","-74.003525","manhattan","['M20']"
401374,"7 AV S/BEDFORD ST","40.730469","-74.00473","manhattan","['M20']"
401375,"7 AV S/CLARKSON ST","40.729462","-74.005302","manhattan","['M20']"
401377,"VARICK ST/CHARLTON ST","40.72686","-74.005714","manhattan","['M20']"
401379,"VARICK ST/WATTS ST","40.723663","-74.006264","manhattan","['M20']"
401380,"VARICK ST/NORTH MOORE ST","40.719658","-74.006958","manhattan","['M20']"
401381,"W BROADWAY/DUANE ST","40.71637","-74.008659","manhattan","['M20']"
401386,"HUDSON ST/W 13 ST","40.740189","-74.005341","manhattan","['M11']"
401387,"HUDSON ST/HORATIO ST","40.738853","-74.005592","manhattan","['M11', 'M14A']"
401388,"HUDSON ST/W 12 ST","40.737671","-74.005768","manhattan","['M14A']"
401393,"BETHUNE ST/GREENWICH ST","40.736988","-74.006355","manhattan","['M11']"
401398,"10 AV/W 21 ST","40.746616","-74.004822","manhattan","['M11']"
401400,"10 AV/W 25 ST","40.749222","-74.002907","manhattan","['M11']"
401401,"10 AV/W 27 ST","40.750454","-74.002007","manhattan","['M11']"
401402,"10 AV/W 30 ST","40.752373","-74.000603","manhattan","['M11']"
401404,"10 AV/W 34 ST","40.754368","-73.999153","manhattan","['M11']"
401407,"10 AV/W 42 ST","40.759846","-73.995178","manhattan","['M11']"
401408,"10 AV/W 45 ST","40.761749","-73.993797","manhattan","['M11']"
401409,"10 AV/W 47 ST","40.763027","-73.992874","manhattan","['M11']"
401410,"10 AV/W 49 ST","40.764271","-73.991959","manhattan","['M11']"
401411,"10 AV/W 53 ST","40.766418","-73.990395","manhattan","['M11']"
401412,"10 AV/W 55 ST","40.768013","-73.989227","manhattan","['M11', 'M31']"
401413,"10 AV/W 57 ST","40.768929","-73.988564","manhattan","['M11']"
401414,"AMSTERDAM AV/W 59 ST","40.77063","-73.987328","manhattan","['M11']"
401416,"AMSTERDAM AV/W 62 ST","40.772644","-73.98584","manhattan","['M11']"
401417,"AMSTERDAM AV/W 65 ST","40.774342","-73.984619","manhattan","['M11']"
401435,"AMSTERDAM AV/W 106 ST","40.800697","-73.965393","manhattan","['M11']"
401436,"AMSTERDAM AV/W 109 ST","40.802567","-73.964027","manhattan","['M11']"
401438,"AMSTERDAM AV/W 112 ST","40.804558","-73.962578","manhattan","['M11']"
401440,"AMSTERDAM AV/W 116 ST","40.807098","-73.960724","manhattan","['M11']"
401441,"AMSTERDAM AV/W 118 ST","40.808353","-73.959808","manhattan","['M11']"
401442,"AMSTERDAM AV/W 120 ST","40.809586","-73.958908","manhattan","['M11', 'M60+']"
401443,"AMSTERDAM AV/W 123 ST","40.812267","-73.956886","manhattan","['M11']"
401444,"AMSTERDAM AV/W 125 ST","40.813747","-73.955872","manhattan","['M11']"
401445,"AMSTERDAM AV/W 126 ST","40.814331","-73.955437","bronx","['M100', 'M101', 'M104']"
401445,"AMSTERDAM AV/W 126 ST","40.814331","-73.955437","manhattan","['M100', 'M101', 'M104']"
401446,"AMSTERDAM AV/W 129 ST","40.814972","-73.954964","bronx","['M11', 'M100', 'M101']"
401446,"AMSTERDAM AV/W 129 ST","40.814972","-73.954964","manhattan","['M11', 'M100', 'M101']"
401447,"AMSTERDAM AV/W 131 ST","40.816677","-73.953728","bronx","['M11', 'M100', 'M101']"
401447,"AMSTERDAM AV/W 131 ST","40.816677","-73.953728","manhattan","['M11', 'M100', 'M101']"
401448,"AMSTERDAM AV/W 133 ST","40.817833","-73.952873","bronx","['M100', 'M101']"
401448,"AMSTERDAM AV/W 133 ST","40.817833","-73.952873","manhattan","['M100', 'M101']"
401453,"HUDSON ST/CHRISTOPHER ST","40.733345","-74.006264","manhattan","['M20']"
401457,"AMSTERDAM AV/W 134 ST","40.81797","-73.953049","bronx","['M11', 'M100']"
401457,"AMSTERDAM AV/W 134 ST","40.81797","-73.953049","manhattan","['M11', 'M100']"
401458,"AMSTERDAM AV/W 131 ST","40.816029","-73.95446","bronx","['M11', 'M100', 'M101']"
401458,"AMSTERDAM AV/W 131 ST","40.816029","-73.95446","manhattan","['M11', 'M100', 'M101']"
401459,"AMSTERDAM AV/W 129 ST","40.814884","-73.955299","bronx","['M11', 'M100', 'M101']"
401459,"AMSTERDAM AV/W 129 ST","40.814884","-73.955299","manhattan","['M11', 'M100', 'M101']"
401460,"AMSTERDAM AV/W 126 ST","40.814075","-73.955795","bronx","['M100']"
401462,"AMSTERDAM AV/W 123 ST","40.811035","-73.958115","manhattan","['M11']"
401463,"AMSTERDAM AV/W 120 ST","40.809048","-73.959564","manhattan","['M11']"
401464,"AMSTERDAM AV/W 118 ST","40.807819","-73.960464","manhattan","['M11']"
401465,"AMSTERDAM AV/W 116 ST","40.806522","-73.961403","manhattan","['M11']"
401466,"AMSTERDAM AV/W 114 ST","40.805286","-73.962311","manhattan","['M11']"
401467,"AMSTERDAM AV/W 112 ST","40.804035","-73.963211","manhattan","['M11']"
401469,"COLUMBUS AV/CATHEDRAL PY","40.801441","-73.961388","manhattan","['M11']"
401470,"COLUMBUS AV/W 108 ST","40.800308","-73.962212","manhattan","['M11']"
401489,"9 AV/W 59 ST","40.768955","-73.985085","manhattan","['M11']"
401490,"9 AV/W 57 ST","40.767673","-73.986046","manhattan","['M11']"
401491,"9 AV/W 55 ST","40.766556","-73.986771","manhattan","['M11']"
401492,"9 AV/W 52 ST","40.764526","-73.988335","manhattan","['M11']"
401493,"9 AV/W 50 ST","40.763294","-73.989235","manhattan","['M11']"
401495,"9 AV/W 46 ST","40.760765","-73.991081","manhattan","['M11']"
401496,"9 AV/W 44 ST","40.759853","-73.991745","manhattan","['M11']"
401497,"9 AV/W 42 ST","40.758583","-73.992668","manhattan","['M11']"
401500,"9 AV/W 35 ST","40.7542","-73.995865","manhattan","['M11']"
401501,"9 AV/W 34 ST","40.753155","-73.996628","manhattan","['M11']"
401502,"9 AV/W 30 ST","40.75061","-73.998474","manhattan","['M11']"
401503,"9 AV/W 28 ST","40.749424","-73.999344","manhattan","['M11']"
401506,"9 AV/W 20 ST","40.744434","-74.002975","manhattan","['M11']"
401507,"9 AV/W 18 ST","40.743221","-74.00386","manhattan","['M11', 'M14D', 'M14A']"
401528,"WEST ST/CHRISTOPHER ST","40.732845","-74.010078","manhattan","['M8']"
401529,"W 10 ST/WASHINGTON ST","40.733311","-74.008705","manhattan","['M8']"
401531,"W 10 ST/BLEECKER ST","40.734005","-74.004257","manhattan","['M8']"
401532,"W 10 ST/7 AV S","40.73423","-74.002586","manhattan","['M8']"
401533,"W 10 ST/WAVERLY PL","40.734489","-74.001022","manhattan","['M8']"
401535,"GREENWICH AV/CHRISTOPHER ST","40.734142","-73.999733","manhattan","['M8']"
401536,"W 8 ST/AV OF THE AMERICAS","40.733368","-73.999161","manhattan","['M8']"
401538,"W 8 ST/5 AV","40.732239","-73.996483","manhattan","['M8']"
401542,"ST MARKS PL/3 AV","40.729324","-73.989532","manhattan","['M8']"
401543,"ST MARKS PL/2 AV","40.728611","-73.987846","manhattan","['M8']"
401544,"ST MARKS PL/1 AV","40.727383","-73.984924","manhattan","['M8']"
401545,"ST MARKS PL/AV A","40.726719","-73.983353","manhattan","['M8']"
401547,"E 10 ST/AV A","40.727646","-73.98188","manhattan","['M8']"
401548,"E 10 ST/AV B","40.726673","-73.979591","manhattan","['M8']"
401549,"E 10 ST/AV C","40.725666","-73.977219","manhattan","['M8']"
401552,"E 10 ST/AV C","40.726048","-73.977844","manhattan","['M8']"
401553,"E 10 ST/AV B","40.727051","-73.980217","manhattan","['M8']"
401554,"E 10 ST/AV A","40.727829","-73.982071","manhattan","['M8']"
401555,"E 9 ST/AV A","40.727463","-73.983002","manhattan","['M8']"
401556,"E 9 ST/1 AV","40.728394","-73.985207","manhattan","['M8']"
401557,"E 9 ST/2 AV","40.729412","-73.98764","manhattan","['M8']"
401558,"E 9 ST/3 AV","40.730095","-73.989265","manhattan","['M8']"
401559,"E 9 ST/4 AV","40.730549","-73.990326","manhattan","['M8']"
401561,"E 9 ST/UNIVERSITY PL","40.732357","-73.994606","manhattan","['M8']"
401562,"W 9 ST/5 AV","40.733089","-73.996368","manhattan","['M8']"
401563,"W 9 ST/AV OF THE AMERICAS","40.734158","-73.998909","manhattan","['M8']"
401564,"CHRISTOPHER ST/GREENWICH AV","40.734112","-73.999947","manhattan","['M8']"
401565,"CHRISTOPHER ST/WAVERLY PL","40.733749","-74.002197","manhattan","['M8']"
401566,"CHRISTOPHER ST/7 AV S","40.733578","-74.003342","manhattan","['M8']"
401567,"CHRISTOPHER ST/BLEECKER ST","40.733368","-74.004692","manhattan","['M8']"
401568,"CHRISTOPHER ST/HUDSON ST","40.733143","-74.006157","manhattan","['M8']"
401569,"CHRISTOPHER ST/GREENWICH ST","40.732853","-74.007927","manhattan","['M8']"
401570,"CHRISTOPHER ST/WASHINGTON ST","40.732666","-74.009064","manhattan","['M8']"
401575,"W 14 ST/8 AV","40.739513","-74.002174","manhattan","['M14D', 'M14A']"
401577,"W 14 ST/6 AV","40.737095","-73.996429","manhattan","['M14D', 'M14A']"
401578,"W 14 ST/5 AV","40.735779","-73.993301","manhattan","['M14D', 'M14A']"
401579,"E 14 ST/UNIVERSITY PL","40.735081","-73.991623","manhattan","['M14D', 'M14A']"
401587,"E 14 ST/AV C","40.728428","-73.97583","manhattan","['M14D']"
401589,"AV C/E 12 ST","40.726978","-73.976814","manhattan","['M14D', 'M9']"
401591,"E 10 ST/AV D","40.724869","-73.975319","manhattan","['M14D', 'M8']"
401594,"AV D/E 8 ST","40.723446","-73.976318","manhattan","['M14D']"
401595,"AV D/E 6 ST","40.722271","-73.977173","manhattan","['M14D']"
401598,"E HOUSTON ST/BARUCH DR","40.719097","-73.976883","manhattan","['M14D', 'M21']"
401599,"E HOUSTON ST/MANGIN ST","40.718834","-73.975616","manhattan","['M14D', 'M21']"
401600,"E HOUSTON ST/555 FDR DR","40.716755","-73.975876","manhattan","['M14D', 'M21']"
401608,"8 AV/BLEECKER ST","40.737381","-74.004929","manhattan","['M20', 'M14A']"
401610,"AV A/E 11 ST","40.728214","-73.982071","manhattan","['M14A']"
401611,"AV A/E 9 ST","40.727032","-73.982941","manhattan","['M14A']"
401612,"AV A/E 6 ST","40.725243","-73.984238","manhattan","['M14A']"
401613,"AV A/E 3 ST","40.723423","-73.985565","manhattan","['M14A']"
401624,"COLUMBIA ST/RIVINGTON ST","40.717781","-73.979759","manhattan","['M14D', 'M21']"
401625,"AV D/E HOUSTON ST","40.720089","-73.978546","manhattan","['M14D']"
401626,"AV D/E 5 ST","40.722118","-73.977074","manhattan","['M14D']"
401627,"AV D/EAST 8 ST","40.723331","-73.976189","manhattan","['M14D']"
401628,"AV D/E 9 ST","40.724144","-73.975594","manhattan","['M14D']"
401630,"AV C/E 12 ST","40.727333","-73.976334","manhattan","['M14D', 'M9']"
401633,"E 14 ST/AV C","40.728611","-73.975906","manhattan","['M14D']"
401656,"AV A/E 3 ST","40.723873","-73.985016","manhattan","['M14A']"
401657,"AV A/E 5 ST","40.725101","-73.984116","manhattan","['M14A']"
401659,"AV A/E 11 ST","40.728676","-73.981506","manhattan","['M14A']"
401664,"WATER ST/BROAD ST","40.703037","-74.010834","manhattan","['M15']"
401665,"WATER ST/OLD SLIP","40.704273","-74.008492","manhattan","['M15']"
401666,"WATER ST/WALL ST","40.705288","-74.007111","manhattan","['X14', 'M15+', 'M15', 'X8']"
401666,"WATER ST/WALL ST","40.705288","-74.007111","staten","['X14', 'M15+', 'M15', 'X8']"
401667,"WATER ST/FLETCHER ST","40.706272","-74.005661","manhattan","['M15']"
401669,"PEARL ST/PECK SLIP","40.708969","-74.002174","manhattan","['M15']"
401670,"PEARL ST/R F WAGNER SR PL","40.7103","-74.000923","manhattan","['M15', 'M22']"
401675,"PIKE ST/DIVISION ST","40.714302","-73.99247","manhattan","['M15']"
401679,"ALLEN ST/DELANCEY ST","40.719559","-73.989967","manhattan","['M15']"
401681,"ALLEN ST/STANTON ST","40.721893","-73.988815","manhattan","['M15']"
401682,"1 AV/E 2 ST","40.723534","-73.988113","manhattan","['M15']"
401685,"1 AV/ST MARKS PL","40.727802","-73.985008","manhattan","['M15']"
401686,"1 AV/E 11 ST","40.729618","-73.983681","manhattan","['M15']"
401687,"1 AV/E 14 ST","40.731827","-73.982155","manhattan","['M15+', 'M15']"
401688,"1 AV/E 17 ST","40.733154","-73.981186","manhattan","['M15']"
401689,"1 AV/E 20 ST","40.735092","-73.979721","manhattan","['M15']"
401690,"1 AV/E 23 ST","40.737034","-73.978317","manhattan","['M15+', 'M15']"
401691,"1 AV/E 25 ST","40.738472","-73.977234","manhattan","['M15']"
401694,"1 AV/E 31 ST","40.741924","-73.974724","manhattan","['M15']"
401696,"1 AV/E 36 ST","40.745293","-73.97226","manhattan","['M15']"
401697,"1 AV/E 39 ST","40.747158","-73.970894","manhattan","['M15']"
401698,"1 AV/E 42 ST","40.749275","-73.969398","manhattan","['M15+', 'M15']"
401699,"1 AV/E 45 ST","40.750664","-73.968407","manhattan","['M15']"
401701,"1 AV/MITCHELL PL","40.753559","-73.966232","manhattan","['M15+', 'M15']"
401702,"1 AV/E 52 ST","40.755371","-73.96492","manhattan","['M15']"
401703,"1 AV/E 55 ST","40.757229","-73.963554","manhattan","['M15']"
401704,"1 AV/E 57 ST","40.758564","-73.962585","manhattan","['M57', 'M15', 'M15+']"
401706,"1 AV/E 64 ST","40.762943","-73.959389","manhattan","['M15']"
401707,"1 AV/E 67 ST","40.764832","-73.958015","manhattan","['M15+', 'M15']"
401708,"1 AV/E 70 ST","40.766705","-73.956642","manhattan","['M15']"
401709,"1 AV/E 72 ST","40.768055","-73.955658","manhattan","['M15']"
401710,"1 AV/E 75 ST","40.769955","-73.954269","manhattan","['M15']"
401711,"1 AV/E 77 ST","40.771233","-73.953346","manhattan","['M15']"
401712,"1 AV/E 79 ST","40.77261","-73.952339","manhattan","['M15+', 'M15']"
401715,"1 AV/E 86 ST","40.777134","-73.949036","manhattan","['M15+', 'M15']"
401716,"1 AV/E 89 ST","40.779011","-73.947662","manhattan","['M15']"
401718,"1 AV/E 93 ST","40.781536","-73.945816","manhattan","['M15']"
401721,"1 AV/E 99 ST","40.785419","-73.942986","manhattan","['M15']"
401722,"1 AV/E 102 ST","40.787323","-73.941597","manhattan","['M15']"
401723,"1 AV/E 105 ST","40.789761","-73.939621","manhattan","['M15+', 'M15']"
401724,"1 AV/E 108 ST","40.791618","-73.938324","manhattan","['M15']"
401725,"1 AV/E 111 ST","40.793076","-73.937401","manhattan","['M15']"
401726,"1 AV/E 113 ST","40.794296","-73.936508","manhattan","['M15']"
401727,"1 AV/E 116 ST","40.796299","-73.935043","manhattan","['M15+', 'M116', 'M15']"
401729,"1 AV/E 120 ST","40.798897","-73.933136","manhattan","['M116', 'M15']"
401730,"1 AV/PALADINO AV","40.80032","-73.932098","manhattan","['M116', 'M15']"
401731,"1 AV/E 125 ST","40.801575","-73.931183","manhattan","['M15+', 'M15']"
401732,"E 126 ST/2 AV","40.80323","-73.932449","manhattan","['M15+', 'M15']"
401738,"2 AV/E 125 ST","40.802494","-73.933891","manhattan","['M15+', 'M15']"
401739,"2 AV/E 122 ST","40.800591","-73.935287","manhattan","['M15']"
401740,"2 AV/E 119 ST","40.798695","-73.936668","manhattan","['M15']"
401741,"2 AV/E 116 ST","40.796745","-73.938095","manhattan","['M15+', 'M15']"
401742,"2 AV/E 113 ST","40.794853","-73.939499","manhattan","['M15']"
401743,"2 AV/E 110 ST","40.792965","-73.940849","manhattan","['M15']"
401744,"2 AV/E 108 ST","40.791706","-73.941795","manhattan","['M15']"
401745,"2 AV/E 106 ST","40.790352","-73.942764","manhattan","['M15']"
401747,"2 AV/E 101 ST","40.787384","-73.944962","manhattan","['M15']"
401753,"2 AV/E 86 ST","40.777573","-73.952095","manhattan","['M15']"
401754,"2 AV/E 84 ST","40.776325","-73.953011","manhattan","['M15']"
401755,"2 AV/E 82 ST","40.775082","-73.953918","manhattan","['M15']"
401756,"2 AV/E 79 ST","40.773067","-73.955383","manhattan","['M15+', 'M15']"
401758,"2 AV/E 75 ST","40.770836","-73.95697","manhattan","['M15']"
401759,"2 AV/E 72 ST","40.768734","-73.958504","manhattan","['M15']"
401760,"2 AV/E 71 ST","40.767883","-73.959122","manhattan","['M15']"
401761,"2 AV/E 68 ST","40.766014","-73.960526","manhattan","['M15+', 'M15']"
401762,"2 AV/E 66 ST","40.764698","-73.961517","manhattan","['M15']"
401763,"2 AV/E 64 ST","40.763496","-73.962372","manhattan","['M15']"
401764,"2 AV/E 61 ST","40.761551","-73.963806","manhattan","['M15', 'Q101']"
401765,"2 AV/E 57 ST","40.759022","-73.965652","manhattan","['M15+', 'M15']"
401768,"2 AV/E 50 ST","40.754646","-73.968842","manhattan","['M15+', 'M15']"
401769,"2 AV/E 46 ST","40.752502","-73.970398","manhattan","['M15']"
401771,"2 AV/E 42 ST","40.749527","-73.972572","manhattan","['M15+', 'M15']"
401772,"2 AV/E 39 ST","40.747662","-73.97393","manhattan","['M15']"
401774,"2 AV/E 34 ST","40.744507","-73.976234","manhattan","['M15+', 'M15']"
401775,"2 AV/E 31 ST","40.742668","-73.977577","manhattan","['M15']"
401778,"2 AV/E 25 ST","40.738953","-73.980278","manhattan","['M15']"
401779,"2 AV/E 23 ST","40.737549","-73.981277","manhattan","['M15+', 'M15']"
401780,"2 AV/E 20 ST","40.735783","-73.982567","manhattan","['M15']"
401781,"2 AV/E 17 ST","40.734028","-73.983841","manhattan","['M15']"
401782,"2 AV/E 14 ST","40.732513","-73.98494","manhattan","['M15+', 'M15']"
401784,"2 AV/E 9 ST","40.728912","-73.987572","manhattan","['M15']"
401785,"2 AV/E 6 ST","40.727184","-73.988823","manhattan","['M15']"
401786,"2 AV/E 3 ST","40.725368","-73.99015","manhattan","['M15']"
401787,"E HOUSTON ST/2 AV","40.723351","-73.990326","manhattan","['M15', 'M21']"
401791,"ALLEN ST/GRAND ST","40.717144","-73.991661","manhattan","['M15']"
401793,"ALLEN ST/CANAL ST","40.714863","-73.992836","manhattan","['M15']"
401797,"PEARL ST/FRANKFORT ST","40.7094","-74.001915","manhattan","['QM8', 'QM1', 'QM25', 'QM7', 'X8', 'QM11', 'M15', 'X14', 'X15']"
401797,"PEARL ST/FRANKFORT ST","40.7094","-74.001915","staten","['QM8', 'QM1', 'QM25', 'QM7', 'X8', 'QM11', 'M15', 'X14', 'X15']"
401800,"WATER ST/MAIDEN LA","40.706055","-74.006317","manhattan","['QM8', 'QM7', 'X8', 'M15', 'X14', 'X15']"
401800,"WATER ST/MAIDEN LA","40.706055","-74.006317","staten","['QM8', 'QM7', 'X8', 'M15', 'X14', 'X15']"
401802,"WATER ST/HANOVER SQ","40.703896","-74.009445","manhattan","['X14', 'X8', 'M15', 'X15']"
401802,"WATER ST/HANOVER SQ","40.703896","-74.009445","staten","['X14', 'X8', 'M15', 'X15']"
401803,"WATER ST/BROAD ST","40.702988","-74.011719","staten","['X8', 'X14', 'X15']"
401806,"WORTH ST/CENTRE ST","40.715389","-74.00248","manhattan","['M22']"
401808,"CENTRE ST/CHAMBERS ST","40.713272","-74.004028","manhattan","['M22']"
401812,"W 42 ST/12 AV","40.761913","-74.001015","manhattan","['M42']"
401813,"W 42 ST/11 AV","40.760544","-73.997925","manhattan","['M42']"
401814,"W 42 ST/10 AV","40.759357","-73.995079","manhattan","['M42']"
401818,"W 34 ST/9 AV","40.753105","-73.995857","manhattan","['M34A+', 'M34+']"
401819,"W 34 ST/8 AV","40.751987","-73.993309","manhattan","['X22A', 'X31', 'X22', 'M34A+', 'M34+']"
401819,"W 34 ST/8 AV","40.751987","-73.993309","staten","['X22A', 'X31', 'X22', 'M34A+', 'M34+']"
401821,"W 34 ST/BROADWAY","40.749626","-73.987617","manhattan","['X31', 'M34A+', 'X22A', 'M34+', 'X17J', 'X22']"
401821,"W 34 ST/BROADWAY","40.749626","-73.987617","staten","['X31', 'M34A+', 'X22A', 'M34+', 'X17J', 'X22']"
401822,"E 34 ST/5 AV","40.748188","-73.984184","manhattan","['X31', 'M34A+', 'X22A', 'BM5', 'X17J', 'X22']"
401822,"E 34 ST/5 AV","40.748188","-73.984184","staten","['X31', 'M34A+', 'X22A', 'BM5', 'X17J', 'X22']"
401824,"E 34 ST/PARK AV","40.746796","-73.980888","manhattan","['BM5', 'M34A+', 'M34+']"
401826,"E 34 ST/3 AV","40.745445","-73.977715","manhattan","['BM5', 'M34A+', 'M34+']"
401827,"E 34 ST/2 AV","40.74477","-73.976089","manhattan","['BM5', 'M34A+', 'M34+']"
401832,"E 23 ST/2 AV","40.737625","-73.980553","manhattan","['M9', 'M34A+', 'X42']"
401832,"E 23 ST/2 AV","40.737625","-73.980553","staten","['M9', 'M34A+', 'X42']"
401833,"E 23 ST/1 AV","40.736549","-73.977882","manhattan","['X42', 'M34A+', 'M9', 'M23', 'X2', 'X14', 'X5']"
401833,"E 23 ST/1 AV","40.736549","-73.977882","staten","['X42', 'M34A+', 'M9', 'M23', 'X2', 'X14', 'X5']"
401840,"E 34 ST/3 AV","40.745979","-73.978516","manhattan","['X68', 'M34A+', 'QM24', 'QM20', 'QM3', 'QM2', 'QM5', 'QM4', 'QM6', 'QM15', 'QM1', 'QM17', 'M34+', 'QM16', 'QM10', 'QM12', 'BM5', 'QM18']"
401840,"E 34 ST/3 AV","40.745979","-73.978516","queens","['X68', 'M34A+', 'QM24', 'QM20', 'QM3', 'QM2', 'QM5', 'QM4', 'QM6', 'QM15', 'QM1', 'QM17', 'M34+', 'QM16', 'QM10', 'QM12', 'BM5', 'QM18']"
401842,"E 34 ST/PARK AV","40.747234","-73.981544","manhattan","['X68', 'M34A+', 'QM24', 'QM20', 'QM3', 'QM2', 'QM5', 'QM4', 'QM6', 'QM15', 'QM1', 'QM17', 'QM16', 'QM12', 'QM10', 'BM5', 'QM18']"
401842,"E 34 ST/PARK AV","40.747234","-73.981544","queens","['X68', 'M34A+', 'QM24', 'QM20', 'QM3', 'QM2', 'QM5', 'QM4', 'QM6', 'QM15', 'QM1', 'QM17', 'QM16', 'QM12', 'QM10', 'BM5', 'QM18']"
401844,"W 34 ST/5 AV","40.748672","-73.984909","manhattan","['QM18', 'M34A+', 'Q32', 'QM24', 'QM5', 'QM1', 'QM2', 'QM20', 'QM4', 'QM6', 'QM15', 'M4', 'QM17', 'QM16', 'QM12', 'QM10', 'M34+', 'QM3']"
401844,"W 34 ST/5 AV","40.748672","-73.984909","queens","['QM18', 'M34A+', 'Q32', 'QM24', 'QM5', 'QM1', 'QM2', 'QM20', 'QM4', 'QM6', 'QM15', 'M4', 'QM17', 'QM16', 'QM12', 'QM10', 'M34+', 'QM3']"
401847,"W 34 ST/7 AV","40.751251","-73.991028","manhattan","['M34A+', 'M34+']"
401848,"W 34 ST/8 AV","40.7523","-73.993591","manhattan","['M34+']"
401850,"8 AV/W 40 ST","40.756046","-73.990509","manhattan","['M34A+']"
401851,"W 42 ST/8 AV","40.757423","-73.990021","manhattan","['X30', 'X31', 'M42', 'X22A', 'X17J', 'X22']"
401851,"W 42 ST/8 AV","40.757423","-73.990021","staten","['X30', 'X31', 'M42', 'X22A', 'X17J', 'X22']"
401852,"W 42 ST/9 AV","40.758671","-73.992981","manhattan","['M42']"
401853,"W 42 ST/10 AV","40.759888","-73.995834","manhattan","['M42']"
401857,"WATERSIDE/WATERSIDE 1","40.737995","-73.973404","manhattan","['M34A+']"
401858,"WATERSIDE/WATERSIDE 2","40.739098","-73.97274","manhattan","['M34A+']"
401867,"W 81 ST/COLUMBUS AV","40.782982","-73.97419","manhattan","['M79']"
401868,"W 81 ST/CENTRAL PK W","40.782009","-73.971924","manhattan","['M79', 'BXM2']"
401869,"E 79 ST TRAVERSE RD","40.778767","-73.968552","manhattan","['M79']"
401870,"E 79 ST/5 AV","40.776768","-73.963425","manhattan","['M79']"
401875,"E 79 ST/2 AV","40.773094","-73.954697","manhattan","['M79']"
401876,"E 79 ST/1 AV","40.772053","-73.952225","manhattan","['M79']"
401877,"YORK AV/E 79 ST","40.771542","-73.950127","manhattan","['M79', 'M31']"
401878,"E 80 ST/EAST END AV","40.771091","-73.947769","manhattan","['M79']"
401880,"E 79 ST/EAST END AV","40.770546","-73.948227","manhattan","['M79']"
401881,"E 79 ST/YORK AV","40.771702","-73.950951","manhattan","['M79']"
401882,"E 79 ST/1 AV","40.77232","-73.952438","manhattan","['M79']"
401883,"E 79 ST/2 AV","40.773579","-73.955414","manhattan","['M79']"
401884,"E 79 ST/3 AV","40.77454","-73.95768","manhattan","['M79']"
401887,"E 79 ST/MADISON AV","40.776276","-73.9618","manhattan","['M79']"
401889,"E 79 ST & TRAVERSE RD","40.779083","-73.96875","manhattan","['M79']"
401890,"W 81 ST/CENTRAL PK W","40.782269","-73.972069","manhattan","['M79', 'BXM2']"
401893,"W 79 ST/BROADWAY","40.784042","-73.980164","manhattan","['M79']"
401896,"W 86 ST/BROADWAY","40.78838","-73.976906","manhattan","['M86']"
401897,"W 86 ST/AMSTERDAM AV","40.78775","-73.975403","manhattan","['M86']"
401898,"W 86 ST/COLUMBUS AV","40.786476","-73.972389","manhattan","['M86']"
401899,"W 86 ST/CENTRAL PK W","40.78529","-73.969376","manhattan","['M86']"
401900,"W 86 ST/TRAVERSE RD","40.784565","-73.967491","manhattan","['M86']"
401901,"E 84 ST/5 AV","40.779816","-73.960632","manhattan","['M86']"
401903,"E 86 ST/MADISON AV","40.780624","-73.958488","manhattan","['M86']"
401905,"E 86 ST/LEXINGTON  AV","40.779179","-73.95488","manhattan","['M86']"
401906,"E 86 ST/3 AV","40.778461","-73.9533","manhattan","['M86']"
401908,"E 86 ST/1 AV","40.776711","-73.949272","manhattan","['M86']"
401909,"YORK AV/E 86 ST","40.776325","-73.946716","manhattan","['M86', 'M31']"
401910,"YORK AV/E 88 ST","40.777458","-73.945869","manhattan","['M86', 'M31']"
401913,"E 86 ST/YORK AV","40.775822","-73.947014","manhattan","['M86']"
401916,"YORK AV/E 91 ST","40.778866","-73.945107","manhattan","['M86', 'M31']"
401917,"YORK AV/E 88 ST","40.777016","-73.946465","manhattan","['M31']"
401919,"E 86 ST/1 AV","40.776882","-73.949158","manhattan","['M86']"
401920,"E 86 ST/2 AV","40.77813","-73.952118","manhattan","['M86']"
401921,"E 86 ST/3 AV","40.778999","-73.954185","manhattan","['M86']"
401922,"E 86 ST/LEXINGTON AV","40.779903","-73.956474","manhattan","['M86']"
401924,"E 86 ST/MADISON AV","40.78088","-73.958664","manhattan","['M86']"
401925,"E 86 ST/5 AV","40.781536","-73.960373","manhattan","['M86']"
401926,"W 86 ST/TRAVERSE RD","40.781406","-73.962364","manhattan","['M86']"
401927,"W 86 ST/CENTRAL PK W","40.785702","-73.9701","manhattan","['M86']"
401929,"W 86 ST/AMSTERDAM AV","40.787697","-73.974815","manhattan","['M86']"
401930,"W 86 ST/BROADWAY","40.78828","-73.976196","manhattan","['M86']"
401933,"W 96 ST/WEST END AV","40.794933","-73.972687","manhattan","['M106', 'M96']"
401934,"W 96 ST/BROADWAY","40.794392","-73.971405","manhattan","['M106', 'M96']"
401935,"W 96 ST/AMSTERDAM AV","40.7938","-73.970009","manhattan","['M106', 'M96']"
401936,"W 96 ST/COLUMBUS AV","40.792603","-73.967163","manhattan","['M106', 'M96']"
401937,"W 96 ST/CENTRAL PK W","40.791668","-73.964943","manhattan","['M106', 'M96']"
401939,"E 96 ST/MADISON AV","40.786987","-73.95385","manhattan","['M96']"
401941,"E 96 ST/LEXINGTON AV","40.785851","-73.95121","manhattan","['M96']"
401942,"E 96 ST/3 AV","40.784946","-73.948997","manhattan","['M96']"
401943,"E 96 ST/2 AV","40.784069","-73.94693","manhattan","['M96']"
401946,"3 AV/E 99 ST","40.787868","-73.947166","manhattan","['M102', 'M103', 'M101']"
401947,"3 AV/E 102 ST","40.789253","-73.946213","manhattan","['M102', 'M103', 'M101']"
401948,"3 AV/E 104 ST","40.79052","-73.94529","manhattan","['M102', 'M103', 'M101']"
401950,"E 106 ST/2 AV","40.790386","-73.942108","manhattan","['M106']"
401951,"E 106 ST/1 AV","40.789402","-73.939774","manhattan","['M106']"
401954,"E 97 ST/1 AV","40.784546","-73.94548","manhattan","['M96']"
401957,"E 96 ST/3 AV","40.785358","-73.949463","manhattan","['M96']"
401958,"E 96 ST/LEXINGTON AV","40.786098","-73.951248","manhattan","['M96']"
401960,"E 96 ST/MADISON AV","40.787243","-73.953873","manhattan","['M96']"
401961,"E 97 ST/5 AV","40.788582","-73.955048","manhattan","['M96']"
401964,"W 96 ST/AMSTERDAM AV","40.794037","-73.970093","manhattan","['M106', 'M96']"
401965,"W 96 ST/BROADWAY","40.794601","-73.971451","manhattan","['M106', 'M96']"
401966,"W 97 ST/WEST END AV","40.795853","-73.972404","manhattan","['M106', 'M96']"
401968,"E 105 ST/1 AV","40.788902","-73.940315","manhattan","['M106']"
401969,"E 106 ST/1 AV","40.789898","-73.940475","manhattan","['M106']"
401970,"E 106 ST/2 AV","40.790768","-73.942596","manhattan","['M106']"
401971,"E 106 ST/3 AV","40.791607","-73.944496","manhattan","['M106']"
401973,"LEXINGTON AV/E 104 ST","40.790581","-73.947578","manhattan","['M102', 'M103', 'M101']"
401974,"LEXINGTON AV/E 102 ST","40.789379","-73.948456","manhattan","['M102', 'M103', 'M101']"
401977,"W 106 ST/BROADWAY","40.801331","-73.967598","manhattan","['M116']"
401988,"W 116 ST/MALCOLM X BL","40.801731","-73.949234","manhattan","['M102', 'M116']"
401989,"W 116 ST/5 AV","40.800667","-73.946709","manhattan","['M102', 'M116']"
401990,"E 116 ST/MADISON AV","40.799694","-73.944412","manhattan","['M102', 'M116']"
401991,"E 116 ST/PARK AV","40.799332","-73.943535","manhattan","['M102']"
401992,"E 116 ST/LEXINGTON AV","40.798607","-73.941818","manhattan","['M116']"
401993,"E 116 ST/3 AV","40.79771","-73.93969","manhattan","['M116']"
401994,"E 116 ST/2 AV","40.796993","-73.937988","manhattan","['M116']"
401998,"PLEASANT AV/E 120 ST","40.797245","-73.931694","manhattan","['M116']"
401999,"E 116 ST/PLEASANT AV","40.795307","-73.93351","manhattan","['M116']"
402000,"E 116 ST/1 AV","40.796005","-73.935173","manhattan","['M116']"
402001,"E 116 ST/2 AV","40.797249","-73.938118","manhattan","['M116']"
402002,"E 116 ST/3 AV","40.797928","-73.939743","manhattan","['M116']"
402003,"E 116 ST/LEXINGTON AV","40.798645","-73.941429","manhattan","['M102', 'M116']"
402004,"E 116 ST/PARK AV","40.799282","-73.94294","manhattan","['M102', 'M116']"
402005,"E 116 ST/MADISON AV","40.800247","-73.945229","manhattan","['M102', 'M116']"
402006,"E 116 ST/5 AV","40.800667","-73.946236","manhattan","['M102', 'M116']"
402016,"W 106 ST/COLUMBUS AV","40.79924","-73.962662","manhattan","['M116']"
402017,"W 106 ST/AMSTERDAM AV","40.800678","-73.966057","manhattan","['M116']"
402018,"W 106 ST/BROADWAY","40.801422","-73.968239","manhattan","['M60+']"
402022,"W HOUSTON ST/AV OF THE AMERICAS","40.728142","-74.002731","manhattan","['M21']"
402023,"W HOUSTON ST/SULLIVAN ST","40.727386","-74.001183","manhattan","['M21']"
402024,"W HOUSTON ST/W BROADWAY","40.726524","-73.999413","manhattan","['M21']"
402026,"E HOUSTON ST/BROADWAY","40.725197","-73.996407","manhattan","['M21']"
402028,"E HOUSTON ST/MOTT ST","40.724476","-73.994057","manhattan","['M21']"
402030,"E HOUSTON ST/BOWERY","40.7239","-73.99247","manhattan","['M21']"
402032,"E HOUSTON ST/ESSEX ST","40.722149","-73.986565","manhattan","['M21']"
402033,"E HOUSTON ST/NORFOLK ST","40.721657","-73.984993","manhattan","['M9', 'M21']"
402034,"E HOUSTON ST/CLINTON ST","40.721287","-73.983734","manhattan","['M9', 'M21']"
402036,"AV C/E 3 ST","40.721783","-73.980423","manhattan","['M9']"
402037,"AV C/E 5 ST","40.723007","-73.979515","manhattan","['M9']"
402038,"AV C/E 7 ST","40.724335","-73.978577","manhattan","['M9']"
402039,"AV C/E 11 ST","40.726242","-73.977043","manhattan","['M14D', 'M9']"
402041,"AV C/E 14 ST","40.728298","-73.975693","manhattan","['M9']"
402042,"AV C/E 16 ST","40.729671","-73.974693","manhattan","['M9']"
402043,"AV C/FDR DRIVE","40.730812","-73.9739","manhattan","['M9']"
402048,"E 29 ST/1 AV","40.740788","-73.975906","manhattan","['M9']"
402049,"E 29 ST/2 AV","40.741592","-73.977913","manhattan","['M9']"
402052,"E 23 ST/AV C","40.7355","-73.975372","manhattan","['M34A+']"
402054,"AV C/E 20 ST","40.732796","-73.974541","manhattan","['M9', 'M23']"
402055,"AV C/E 18 ST","40.731274","-73.974297","manhattan","['M9']"
402056,"AV C/E 16 ST","40.73003","-73.974884","manhattan","['M9']"
402057,"AV C/E 14 ST","40.729141","-73.975471","manhattan","['M9']"
402067,"E HOUSTON ST/AV B","40.721722","-73.984154","manhattan","['M9', 'M21']"
402068,"E HOUSTON ST/E 1 ST","40.722446","-73.986641","manhattan","['M21']"
402069,"E HOUSTON ST/1 AV","40.72303","-73.988449","manhattan","['M21']"
402071,"E HOUSTON ST/BOWERY","40.724422","-73.992851","manhattan","['M21']"
402080,"CHAMBERS ST/WEST ST","40.717133","-74.012596","manhattan","['M20', 'M22']"
402082,"PARK ROW/SPRUCE ST","40.711864","-74.005928","manhattan","['BM2', 'BM3', 'BM1', 'BM4', 'M22']"
402085,"FRANKFORT ST/PEARL ST","40.709557","-74.001877","manhattan","['QM25', 'QM11', 'QM7', 'M22', 'QM8']"
402087,"MADISON ST/ST JAMES PL","40.711769","-73.999046","manhattan","['M15']"
402088,"MADISON ST/OLIVER ST","40.711876","-73.997925","manhattan","['M22']"
402090,"MADISON ST/MARKET ST","40.712208","-73.994095","manhattan","['M15', 'M22']"
402091,"MADISON ST/PIKE ST","40.712395","-73.992035","manhattan","['M22']"
402092,"MADISON ST/RUTGERS ST","40.712601","-73.989563","manhattan","['M22']"
402093,"MADISON ST/JEFFERSON ST","40.712696","-73.988396","manhattan","['M22']"
402094,"MADISON ST/CLINTON ST","40.712864","-73.986458","manhattan","['M22']"
402095,"MADISON ST/MONTGOMERY ST","40.713043","-73.984581","manhattan","['M22']"
402096,"MADISON ST/GOUVERNEUR ST","40.713154","-73.983559","manhattan","['M22']"
402097,"MADISON ST/GOUVERNEUR ST","40.713329","-73.981766","manhattan","['M22']"
402100,"GRAND ST/FDR DR","40.713264","-73.977982","manhattan","['M22', 'M14A']"
402102,"CHERRY ST/JACKSON ST","40.712296","-73.980522","manhattan","['M22', 'M14A']"
402103,"JACKSON ST/MADISON ST","40.71336","-73.980705","manhattan","['M22', 'M14A']"
402104,"MADISON ST/JACKSON ST","40.713585","-73.981361","manhattan","['M22']"
402105,"MADISON ST/GOUVERNEUR ST","40.713219","-73.984344","manhattan","['M22']"
402106,"MADISON ST/MONTGOMERY ST","40.713093","-73.98555","manhattan","['M22']"
402107,"MADISON ST/CLINTON ST","40.712933","-73.987442","manhattan","['M22']"
402108,"MADISON ST/JEFFERSON ST","40.712807","-73.988884","manhattan","['M22']"
402109,"MADISON ST/RUTGERS ST","40.712685","-73.990417","manhattan","['M22']"
402110,"MADISON ST/PIKE ST","40.71254","-73.992149","manhattan","['M22']"
402111,"MADISON ST/MARKET ST","40.712326","-73.994743","manhattan","['M15']"
402112,"MADISON ST/CATHERINE ST","40.712097","-73.997284","manhattan","['M15+', 'M15']"
402118,"CHAMBERS ST/BROADWAY","40.714165","-74.006142","manhattan","['M22']"
402119,"CHAMBERS ST/CHURCH ST","40.714935","-74.007729","manhattan","['M22']"
402124,"W 23 ST/10 AV","40.747425","-74.003761","manhattan","['M23']"
402125,"W 23 ST/9 AV","40.746246","-74.000954","manhattan","['M23']"
402126,"W 23 ST/8 AV","40.74506","-73.998138","manhattan","['M23']"
402127,"W 23 ST/7 AV","40.743954","-73.995491","manhattan","['M23']"